~VERSION INFORMATION
 VERS.                 2.0:   CWLS LOG ASCII STANDARD - VERSION 2.0
 WRAP.                  NO:   SINGLE LINE PER DEPTH STEP
 CREA.                 5/20/2023 9:31:26 AM
#CREATED USING IP VERSION 4.5.2018.204 BY ADMIN ON 5/20/2023 9:31:26 AM
~WELL INFORMATION
#MNEM.UNIT       DATA                          DESCRIPTION MNEMONIC
#---------      ---------------------------   --------------------------
 STRT    .M         2078.0227                 : START DEPTH
 STOP    .M         2636.5688                 : STOP DEPTH
 STEP    .M         0.5000                    : STEP VALUE
 NULL    .      -999.0000                     : NULL VALUE
 DATE    .      5/20/2023                     : LAS file Creation Date
 WELL   .      ADWL-2    : Well Name
 COMP   .                : Company
 FLD    .                : Field
 UWI    .                : Unique Well Identifier (UWI)
 LOC    .                : Location
 RWS    .      -999      : Def_Rw
 WST    .      -999      : Def_Rwt
 PROV   .                : Province
 SRVC   .                : Contractor
 GDAT   .      WGS 84    : Geodatum
 LONG   .      0         : Longitude
 LATI   .      0         : Latitude
 COORDIN.                : Grid System
 XCOORD .                : X or East-West Coordinate
 YCOORD .                : Y or North-South Coordinate
~CURVE INFORMATION
#MNEM              UNIT       API CODE   Curve Type  Comments
#----------  --------------- ----------  ----------  -----------
 DEPTH      .M                         : Depth           
 VP         .KM/S                      : Vp    	     P-Wave Velocity
 VS         .KM/S                      : Vs 	     S-wave Velocity
 RHOB       .Gr/CC                     : RHOB        Density
 GR	    .GAPI		       : GR 	     Gamma Ray
 NPHI       .V/V                       : NPHI	     Neutron
 
~A  DEPTH         VP       VS    RHOB   GR      NPHI   
# ...
2465.5759	3.0439	1.3952	2.3044	85	0.3863
2465.7285	3.0922	1.4836	2.3294	86	0.3906
2465.8809	3.1142	1.4481	2.3433	79	0.3651
2466.0332	3.1322	1.4592	2.3456	73	0.3342
2466.1855	3.0301	1.3675	2.3205	73	0.2855
2466.3379	2.9521	1.3309	2.2948	80	0.2856
2466.4905	2.8654	1.2556	2.2834	86	0.3105
2466.6428	2.8232	1.2260	2.2776	91	0.3401
2466.7952	2.8208	1.2260	2.2694	93	0.3741
2466.9475	2.8088	1.2191	2.2611	94	0.3806
2467.1001	2.8496	1.2238	2.2823	95	0.3980
2467.2524	2.8538	1.2347	2.2695	97	0.3962
2467.4048	2.8848	1.2401	2.2787	101	0.3738
2467.5571	2.8948	1.2943	2.2904	98	0.3634
2467.7097	2.8353	1.2316	2.3538	89	0.3478
2467.8621	2.8194	1.2335	2.3643	82	0.3462
2468.0144	2.7392	1.1738	2.3337	81	0.3341
2468.1667	2.6776	1.1794	2.3224	87	0.3567
2468.3191	2.7195	1.1794	2.3176	93	0.4068
2468.4717	2.7899	1.1912	2.2925	98	0.4285
2468.6240	2.7966	1.2152	2.2808	99	0.4280
2468.7764	2.8217	1.2390	2.2658	97	0.3748
2468.9287	2.8124	1.2870	2.3029	90	0.3546
2469.0813	2.8179	1.2496	2.3250	85	0.3328
2469.2336	2.7619	1.1764	2.3055	79	0.3687
2469.3860	2.6895	1.1329	2.2527	78	0.3889
2469.5383	2.6308	1.1136	2.2169	78	0.4153
2469.6909	2.6488	1.1359	2.1905	79	0.4036
2469.8433	2.6743	1.1359	2.1740	81	0.4048
2469.9956	2.6680	1.0816	2.1587	80	0.4229
2470.1479	2.7120	1.0863	2.1576	77	0.4106
2470.3003	2.6823	1.1413	2.1844	74	0.3748
2470.4529	2.7507	1.1825	2.2338	69	0.3347
2470.6052	2.7560	1.1892	2.3083	68	0.3667
2470.7576	2.7116	1.1887	2.3116	70	0.3913
2470.9099	2.6820	1.1783	2.3505	76	0.4105
2471.0625	2.7420	1.2043	2.3520	82	0.4094
2471.2148	2.5158	1.2006	2.2683	84	0.4510
2471.3672	2.4785	1.2006	2.2524	83	0.4490
2471.5195	2.4388	1.1522	2.2771	80	0.4155
2471.6721	2.4320	1.1380	2.3937	77	0.3880
2471.8245	2.4253	1.0837	2.3441	83	0.4093
2471.9768	2.4431	1.0179	2.2117	94	0.4547
2472.1292	2.4312	1.0283	2.1272	103	0.4952
2472.2815	2.4884	1.0261	2.1284	106	0.4628
2472.4341	2.5467	1.0998	2.1754	106	0.4566
2472.5864	2.6354	1.1814	2.1826	105	0.4246
2472.7388	2.7516	1.2820	2.2264	101	0.4418
2472.8911	2.9776	1.3706	2.2764	95	0.4456
2473.0437	3.0552	1.4029	2.3436	92	0.4337
2473.1960	3.0906	1.5151	2.3625	94	0.4166
2473.3484	3.3066	1.5151	2.3646	95	0.3893
2473.5007	3.3063	1.5091	2.3888	93	0.3691
2473.6533	3.1188	1.4504	2.4283	88	0.3442
2473.8057	2.9373	1.4466	2.4101	87	0.3124
2473.9580	2.8698	1.3785	2.3606	85	0.3003
2474.1104	2.8848	1.3152	2.3090	87	0.3322
2474.2627	2.9581	1.3095	2.2784	90	0.3613
2474.4153	3.0229	1.3852	2.2829	93	0.3901
2474.5676	2.9835	1.4033	2.3023	89	0.3626
2474.7200	2.9894	1.4315	2.3202	83	0.3349
2474.8723	3.0637	1.4288	2.3194	78	0.3162
2475.0249	3.1159	1.4895	2.3133	76	0.3021
2475.1772	3.0320	1.4799	2.3193	77	0.2995
2475.3296	2.9658	1.4491	2.3196	79	0.2767
2475.4819	2.9518	1.2781	2.3207	79	0.2731
2475.6345	2.7595	1.2290	2.3023	78	0.2942
2475.7869	2.6581	1.1703	2.2760	78	0.3492
2475.9392	2.6544	1.1214	2.2642	83	0.4037
2476.0916	2.6857	1.0968	2.2779	92	0.4430
2476.2439	2.6994	1.0869	2.3294	96	0.4396
2476.3965	2.6901	1.0869	2.4076	97	0.4468
2476.5488	2.6964	1.1041	2.4604	95	0.4291
2476.7012	2.6529	1.1229	2.3964	93	0.4089
2476.8535	2.6338	1.1846	2.3254	94	0.4089
2477.0061	2.6656	1.1564	2.3118	92	0.4337
2477.1584	2.6869	1.1738	2.3276	95	0.4701
2477.3108	2.8213	1.1880	2.3430	90	0.4664
2477.4631	2.8500	1.0079	2.3586	88	0.3915
2477.6155	2.7523	1.1739	2.4014	80	0.3425
2477.7681	2.7194	1.1795	2.3764	76	0.3125
2477.9204	2.6328	1.0968	2.3259	79	0.3618
2478.0728	2.6046	1.0968	2.2548	84	0.4289
2478.2251	2.6342	1.1202	2.2591	92	0.4577
2478.3777	2.7507	1.2484	2.2667	89	0.4356
2478.5300	2.7474	1.1943	2.2889	87	0.4171
2478.6824	2.7642	1.2214	2.3090	84	0.4220
2478.8347	2.8945	1.3942	2.3344	86	0.4237
2478.9873	3.0421	1.4365	2.3500	84	0.4075
2479.1396	2.9650	1.3835	2.3103	82	0.3895
2479.2920	2.9470	1.3452	2.2505	79	0.4079
2479.4443	2.7966	1.3428	2.2591	74	0.3410
2479.5967	2.7833	1.2762	2.3196	68	0.3052
2479.7493	2.6333	1.2829	2.4270	72	0.2816
2479.9016	2.6581	1.2796	2.4055	82	0.3532
2480.0540	2.6373	1.1601	2.3179	90	0.3698
2480.2063	2.6633	1.1866	2.2770	88	0.3706
2480.3589	2.6171	1.1903	2.2724	87	0.3674
2480.5112	2.7200	1.0964	2.2692	90	0.3984
2480.6636	2.8463	1.0947	2.2352	94	0.4383
2480.8159	2.7629	1.1722	2.2580	95	0.4543
2480.9685	2.8196	1.1799	2.2889	92	0.4238
2481.1208	2.8233	1.1615	2.3639	90	0.3848
2481.2732	2.8166	1.1699	2.3281	89	0.3594
2481.4255	2.8800	1.1699	2.2788	92	0.3871
2481.5779	2.8260	1.1648	2.2752	97	0.4077
2481.7305	2.7729	1.2958	2.2696	97	0.4506
2481.8828	2.7635	1.2969	2.2563	94	0.4497
2482.0352	2.7250	1.2949	2.2852	90	0.4473
2482.1875	2.7485	1.2727	2.3348	87	0.4195
2482.3401	2.7531	1.2736	2.3331	88	0.4108
2482.4924	2.7031	1.2442	2.3234	89	0.4080
2482.6448	2.7153	1.2460	2.3128	91	0.4125
2482.7971	2.8192	1.1750	2.2652	91	0.4170
2482.9497	2.8320	1.3127	2.2445	92	0.4321
2483.1021	2.9202	1.3027	2.2629	94	0.4447
2483.2544	2.9661	1.3027	2.3087	98	0.4567
2483.4067	2.9107	1.3660	2.3047	98	0.4372
2483.5591	2.9751	1.3379	2.2827	94	0.3683
2483.7117	2.9333	1.3117	2.3094	87	0.2973
2483.8640	2.9141	1.3097	2.3454	87	0.2877
2484.0164	2.7305	1.2309	2.3315	87	0.3113
2484.1687	2.6872	1.1329	2.3170	89	0.3512
2484.3213	2.6400	1.0940	2.3427	86	0.3672
2484.4736	2.5826	1.0940	2.3558	86	0.3942
2484.6260	2.5650	1.1255	2.3483	91	0.4062
2484.7783	2.6396	1.3249	2.3339	99	0.4179
2484.9309	2.7300	1.3942	2.3337	101	0.4406
2485.0833	3.0676	1.3942	2.3322	101	0.4412
2485.2356	3.0561	1.3844	2.3423	98	0.4520
2485.3879	3.0503	1.4732	2.3538	96	0.4597
2485.5403	3.1526	1.3916	2.3252	90	0.4451
2485.6929	2.9994	1.3891	2.2932	78	0.3956
2485.8452	2.8823	1.3773	2.2728	68	0.3079
2485.9976	2.8865	1.2566	2.2838	62	0.2697
2486.1499	2.7755	1.2030	2.3067	64	0.2642
2486.3025	2.7057	1.2497	2.3048	73	0.3334
2486.4548	2.7067	1.2515	2.2696	88	0.3933
2486.6072	2.8579	1.2440	2.2498	99	0.4524
2486.7595	2.8449	1.2341	2.2565	104	0.4413
2486.9121	2.8242	1.2250	2.2804	100	0.4095
2487.0645	2.6845	1.1899	2.3074	96	0.3769
2487.2168	2.6359	1.1899	2.3303	93	0.3607
2487.3691	2.6004	1.1569	2.3798	92	0.3819
2487.5215	2.6576	1.1457	2.3801	95	0.3779
2487.6741	2.6167	1.1477	2.3449	96	0.3927
2487.8264	2.6109	1.1543	2.3161	98	0.4037
2487.9788	2.6290	1.1356	2.3303	99	0.4257
2488.1311	2.6163	1.1356	2.3318	99	0.4244
2488.2837	2.6076	1.1183	2.3237	97	0.4155
2488.4360	2.6135	1.1138	2.3044	97	0.4184
2488.5884	2.6055	1.1142	2.3228	95	0.4416
2488.7407	2.6655	1.1063	2.3219	95	0.4395
2488.8933	2.6641	1.0915	2.2934	92	0.4418
2489.0457	2.5938	1.0521	2.2836	92	0.4412
2489.1980	2.6032	1.0634	2.2991	92	0.4493
2489.3503	2.5820	1.0469	2.3070	98	0.4633
2489.5027	2.5836	1.0596	2.3243	96	0.4593
2489.6553	2.6057	1.0600	2.3328	96	0.4867
2489.8076	2.6036	1.0617	2.3405	93	0.4719
2489.9600	2.6181	1.0896	2.3597	95	0.4520
2490.1123	2.5826	1.1938	2.3531	95	0.4308
2490.2649	2.5887	1.1489	2.3280	95	0.3936
2490.4172	2.5737	1.0234	2.3417	93	0.4031
2490.5696	2.6419	1.1743	2.3626	90	0.3830
2490.7219	2.7492	1.2664	2.3594	88	0.4088
2490.8745	2.8084	1.4388	2.3235	87	0.4074
2491.0269	2.8566	1.6520	2.3111	89	0.4410
2491.1792	3.2070	1.7715	2.3093	87	0.4218
2491.3315	3.0638	1.9606	2.3084	83	0.3677
2491.4839	2.9985	1.9221	2.3476	76	0.2578
2491.6365	2.9129	1.7952	2.3644	70	0.2154
2491.7888	2.7924	1.3049	2.3596	66	0.2421
2491.9412	2.7367	1.3138	2.3378	67	0.3217
2492.0935	2.7016	1.2963	2.3262	72	0.3796
2492.2461	2.7467	1.1726	2.3347	78	0.4030
2492.3984	2.7945	1.2474	2.3516	82	0.4078
2492.5508	2.8095	1.2567	2.3558	85	0.3976
2492.7031	2.8219	1.2551	2.3693	86	0.4001
2492.8557	2.8450	1.3087	2.3917	86	0.3727
2493.0081	2.8141	1.3177	2.4087	83	0.3630
2493.1604	2.8048	1.3906	2.4037	81	0.3457
2493.3127	2.7871	1.3489	2.3883	78	0.3589
2493.4651	2.8147	1.3474	2.3802	79	0.3608
2493.6177	2.8262	1.3211	2.3885	78	0.3780
2493.7700	2.8603	1.3791	2.3960	76	0.3598
2493.9224	2.8463	1.3794	2.3983	72	0.3615
2494.0747	2.8361	1.3833	2.3931	74	0.3451
2494.2273	2.7725	1.3723	2.3930	77	0.3538
2494.3796	2.7886	1.2961	2.3960	73	0.3557
2494.5320	2.8150	1.2822	2.3949	69	0.3477
2494.6843	2.8255	1.2563	2.3866	65	0.3482
2494.8369	2.7485	1.2694	2.3665	67	0.3690
2494.9893	2.6799	1.2429	2.3522	72	0.3947
2495.1416	2.6681	1.2560	2.3456	76	0.3952
