~VERSION INFORMATION
 VERS.                 2.0:   CWLS LOG ASCII STANDARD - VERSION 2.0
 WRAP.                  NO:   SINGLE LINE PER DEPTH STEP
 CREA.                 5/20/2023 9:31:26 AM
#CREATED USING IP VERSION 4.5.2018.204 BY ADMIN ON 5/20/2023 9:31:26 AM
~WELL INFORMATION
#MNEM.UNIT       DATA                          DESCRIPTION MNEMONIC
#---------      ---------------------------   --------------------------
 STRT    .M         2078.0227                 : START DEPTH
 STOP    .M         2636.5688                 : STOP DEPTH
 STEP    .M         0.5000                    : STEP VALUE
 NULL    .      -999.0000                     : NULL VALUE
 DATE    .      5/20/2023                     : LAS file Creation Date
 WELL   .      ADWL-2    : Well Name
 COMP   .                : Company
 FLD    .                : Field
 UWI    .                : Unique Well Identifier (UWI)
 LOC    .                : Location
 RWS    .      -999      : Def_Rw
 WST    .      -999      : Def_Rwt
 PROV   .                : Province
 SRVC   .                : Contractor
 GDAT   .      WGS 84    : Geodatum
 LONG   .      0         : Longitude
 LATI   .      0         : Latitude
 COORDIN.                : Grid System
 XCOORD .                : X or East-West Coordinate
 YCOORD .                : Y or North-South Coordinate
~CURVE INFORMATION
#MNEM              UNIT       API CODE   Curve Type  Comments
#----------  --------------- ----------  ----------  -----------
 DEPTH      .M                         : Depth           
 VP         .KM/S                      : Vp    	     P-Wave Velocity
 VS         .KM/S                      : Vs 	     S-wave Velocity
 RHOB       .Gr/CC                     : RHOB        Density
 GR	    .GAPI		       : GR 	     Gamma Ray
 NPHI       .V/V                       : NPHI	     Neutron
 
~A  DEPTH         VP       VS    RHOB   GR      NPHI   
# ...
2226.7651	3.1459	1.5029	2.1946	67	0.2721
2226.9175	3.1097	1.5299	2.1857	66	0.2744
2227.0701	3.1846	1.5409	2.1783	67	0.2887
2227.2224	3.2309	1.5691	2.1699	66	0.2883
2227.3748	3.2311	1.5691	2.1671	66	0.3076
2227.5271	3.2714	1.6223	2.1859	67	0.3106
2227.6797	3.1561	1.6200	2.2702	69	0.2934
2227.8320	3.1603	1.5150	2.3780	71	0.2639
2227.9844	3.0931	1.4989	2.4237	72	0.2553
2228.1367	3.0749	1.5082	2.3199	68	0.2737
2228.2893	3.0697	1.5082	2.2264	67	0.2976
2228.4417	3.0422	1.4516	2.1675	65	0.2999
2228.5940	2.9962	1.2435	2.1586	66	0.2926
2228.7463	2.9450	1.2433	2.1565	66	0.2830
2228.8987	2.9410	1.2589	2.1480	66	0.2771
2229.0513	2.9774	1.2587	2.1435	67	0.2811
2229.2036	2.9880	1.2587	2.1511	66	0.2839
2229.3560	3.0256	1.2804	2.1656	66	0.2945
2229.5083	3.0452	1.3222	2.1673	67	0.2969
2229.6609	3.0568	1.3792	2.1767	69	0.2940
2229.8132	3.0324	1.3768	2.1877	72	0.2865
2229.9656	2.9639	1.1968	2.1901	73	0.2980
2230.1179	2.8952	1.1968	2.1807	73	0.2992
2230.2705	2.8106	1.1731	2.1536	70	0.3159
2230.4229	2.7759	1.4326	2.1325	67	0.2998
2230.5752	2.7578	1.4637	2.1261	66	0.3088
2230.7275	2.7721	1.4468	2.1259	68	0.3062
2230.8799	2.7447	1.3661	2.1299	68	0.3163
2231.0325	2.6858	1.3661	2.1278	69	0.3227
2231.1848	2.6369	1.2826	2.1209	66	0.3329
2231.3372	2.7028	1.2418	2.1126	70	0.3419
2231.4895	2.6844	1.1823	2.1281	72	0.3419
2231.6421	2.7191	1.2096	2.1627	75	0.3476
2231.7944	2.6860	1.0433	2.2051	76	0.3426
2231.9468	2.7485	1.0416	2.2127	80	0.3410
2232.0991	2.7218	1.0609	2.2078	77	0.3293
2232.2517	2.7265	1.3848	2.2076	81	0.3420
2232.4041	2.7397	1.3422	2.2119	79	0.3403
2232.5564	2.7792	1.3044	2.1818	79	0.3287
2232.7087	2.6831	1.2331	2.1502	75	0.3097
2232.8611	2.6350	1.2331	2.1422	73	0.3201
2233.0137	2.5190	1.1565	2.1592	75	0.3500
2233.1660	2.4887	0.9592	2.1776	72	0.3656
2233.3184	2.4048	0.9595	2.1799	75	0.3667
2233.4707	2.3454	0.9425	2.1793	78	0.3395
2233.6233	2.2756	0.9298	2.1769	85	0.3438
2233.7756	2.2855	0.9311	2.0984	88	0.3570
2233.9280	2.3527	1.0867	2.0263	89	0.4333
2234.0803	2.4127	1.1299	1.9682	88	0.4523
2234.2329	2.4231	1.1535	2.0214	86	0.4473
2234.3853	2.4297	1.0509	2.0727	83	0.4063
2234.5376	2.3954	0.8652	2.1268	78	0.3977
2234.6899	2.3116	0.8652	2.1403	80	0.3938
2234.8423	2.3045	0.8841	2.1522	81	0.3835
2234.9949	2.2772	0.8332	2.1616	81	0.3726
2235.1472	2.2758	0.7867	2.1641	78	0.3851
2235.2996	2.2795	0.8551	2.1630	78	0.3977
2235.4519	2.3376	0.9401	2.1728	79	0.4134
2235.6045	2.3690	0.9401	2.1824	82	0.4293
2235.7568	2.4319	0.9809	2.1902	83	0.4490
2235.9092	2.5139	0.9852	2.1875	84	0.4394
2236.0615	2.5227	1.0898	2.1752	82	0.4201
2236.2141	2.7144	1.1130	2.1372	77	0.3940
2236.3665	2.7442	1.1051	2.1049	71	0.3889
2236.5188	2.6791	1.1234	2.0810	65	0.3629
2236.6711	2.6936	1.1234	2.0821	65	0.3451
2236.8235	2.6934	1.2214	2.0827	64	0.3243
2236.9761	2.7149	1.2587	2.0844	66	0.3283
2237.1284	2.6912	1.2508	2.0877	64	0.3303
2237.2808	2.7286	1.4370	2.0943	64	0.3438
2237.4331	2.7185	1.4370	2.0995	63	0.3469
2237.5857	2.7112	1.4051	2.1081	62	0.3407
2237.7380	2.7138	1.3927	2.1122	62	0.3350
2237.8904	2.7354	1.4395	2.1132	64	0.3186
2238.0427	2.7780	1.4302	2.1080	67	0.3225
2238.1953	2.8222	1.3692	2.1063	67	0.3058
2238.3477	2.9229	1.3692	2.1029	66	0.3175
2238.5000	2.8732	1.4181	2.1105	66	0.3195
2238.6523	2.7914	1.3125	2.1173	67	0.3431
2238.8047	2.7357	1.2919	2.1315	68	0.3280
2238.9573	2.7024	1.2084	2.1374	68	0.3267
2239.1096	2.6328	1.0200	2.1403	68	0.3124
2239.2620	2.5739	1.0200	2.1485	71	0.3181
2239.4143	2.5741	0.9821	2.1652	77	0.3626
2239.5669	2.6377	1.0316	2.1829	85	0.4122
2239.7192	2.6791	1.1446	2.2165	90	0.4588
2239.8716	2.7299	1.2908	2.2372	91	0.4248
2240.0239	2.7757	1.3826	2.2477	86	0.3833
2240.1765	2.8157	1.3826	2.2086	81	0.3445
2240.3289	2.8308	1.3914	2.1538	72	0.3372
2240.4812	2.8392	1.3998	2.1178	67	0.3404
2240.6335	2.8344	1.2552	2.1120	64	0.3406
2240.7859	2.8840	1.2499	2.1136	65	0.3322
2240.9385	2.9106	1.2494	2.1184	63	0.3268
2241.0908	2.8785	1.2494	2.1195	62	0.3245
2241.2432	2.8745	1.2041	2.1264	63	0.3185
2241.3955	2.8694	1.1546	2.1247	64	0.3171
2241.5481	2.8582	1.3490	2.1327	65	0.3025
2241.7004	2.8510	1.3656	2.1257	65	0.3145
2241.8528	2.8230	1.4589	2.1214	64	0.3163
2242.0051	2.8277	1.4589	2.1132	62	0.3276
2242.1577	2.8079	1.4627	2.1163	63	0.3240
2242.3101	2.7610	1.3109	2.1221	64	0.3307
2242.4624	2.7299	1.4938	2.1326	66	0.3360
2242.6147	3.0616	1.5954	2.1376	63	0.3475
2242.7671	3.1079	1.4655	2.1350	65	0.3406
2242.9197	3.1524	1.4624	2.1464	64	0.3277
2243.0720	3.0814	1.3404	2.1703	65	0.3117
2243.2244	2.9416	1.2838	2.2065	63	0.3194
2243.3767	2.7958	1.3151	2.2143	64	0.3421
2243.5293	2.7434	1.4054	2.1844	64	0.3457
2243.6816	2.7729	1.4248	2.1420	64	0.3417
2243.8340	2.7647	1.4248	2.1266	63	0.3378
2243.9863	2.8877	1.4043	2.1271	61	0.3340
2244.1389	2.8797	1.4127	2.1287	61	0.3377
2244.2913	2.8660	1.2596	2.1211	58	0.3329
2244.4436	2.8510	1.2265	2.1158	60	0.3253
2244.5959	2.8699	1.1460	2.1134	63	0.3199
2244.7483	2.8426	1.1460	2.1163	64	0.3106
2244.9009	2.7543	1.2467	2.1182	66	0.3181
2245.0532	2.6338	1.1544	2.1165	65	0.3077
2245.2056	2.6118	1.0698	2.1195	68	0.3046
2245.3579	2.5563	1.0310	2.1134	65	0.3233
2245.5105	2.5450	1.0368	2.1257	68	0.3262
2245.6628	2.5514	1.0351	2.1565	77	0.3603
2245.8152	2.6455	1.0590	2.1878	86	0.3849
2245.9675	2.6029	1.0633	2.2241	87	0.4262
2246.1201	2.5414	1.0155	2.2408	82	0.4127
2246.2725	2.5552	0.9945	2.2493	77	0.3659
2246.4248	2.5073	0.9945	2.2517	76	0.3348
2246.5771	2.4554	0.9474	2.2521	75	0.3276
2246.7295	2.4733	0.9449	2.2124	83	0.3848
2246.8821	2.5196	0.9621	2.1547	90	0.4588
2247.0344	2.5351	1.0061	2.1299	90	0.4761
2247.1868	2.5864	1.0044	2.1829	84	0.4382
2247.3391	2.6057	1.0448	2.2519	78	0.3749
2247.4917	2.5827	1.0435	2.3299	77	0.3850
2247.6440	2.5559	1.0638	2.3760	78	0.3798
2247.7964	2.5227	1.0201	2.3831	78	0.3818
2247.9487	2.5247	1.0195	2.3533	81	0.3768
2248.1013	2.5537	1.0195	2.3162	83	0.4060
2248.2537	2.5420	0.9893	2.2804	84	0.4129
2248.4060	2.5002	0.9834	2.2741	83	0.4016
2248.5583	2.4937	1.0230	2.2682	83	0.3851
2248.7107	2.5513	1.0427	2.2695	86	0.3805
2248.8633	2.4951	1.0484	2.2601	85	0.3979
2249.0156	2.5521	1.0484	2.2307	87	0.4105
2249.1680	2.6416	1.0749	2.2380	88	0.4047
2249.3203	2.7486	1.0894	2.2387	86	0.3892
2249.4729	2.7813	1.1917	2.2186	81	0.3606
2249.6252	2.7840	1.3575	2.2281	82	0.3689
2249.7776	2.7928	1.6363	2.2316	87	0.3756
2249.9299	2.9361	1.6363	2.2225	87	0.3782
2250.0825	2.8689	1.5944	2.1895	79	0.3654
2250.2349	2.8775	1.3012	2.1547	70	0.3470
2250.3872	2.8555	1.3203	2.1346	66	0.3318
2250.5396	2.9040	1.2973	2.1302	67	0.3230
2250.6919	2.9173	1.2973	2.1276	67	0.3066
2250.8445	2.9016	1.2685	2.1231	66	0.3146
2250.9968	2.8809	1.3317	2.1186	64	0.3107
2251.1492	2.9278	1.3721	2.1180	61	0.3129
2251.3015	2.9279	1.3344	2.1194	60	0.3233
2251.4541	2.9684	1.3344	2.1175	61	0.3247
2251.6064	3.0226	1.1908	2.1180	61	0.3252
2251.7588	2.9122	1.1195	2.1181	64	0.3331
2251.9111	2.9437	1.2006	2.1139	65	0.3307
2252.0637	2.9569	1.2107	2.1467	75	0.3663
2252.2161	2.5642	1.2107	2.2288	83	0.3708
2252.3684	2.5846	1.1179	2.3043	91	0.3930
2252.5208	2.7170	1.1657	2.3135	91	0.4136
2252.6731	2.7443	1.3043	2.2652	94	0.4441
2252.8257	2.8951	1.3146	2.2585	94	0.4903
2252.9780	2.9873	1.3697	2.2755	91	0.4955
2253.1304	3.0677	1.3673	2.2773	85	0.4614
2253.2827	3.1169	1.3605	2.2319	72	0.4174
2253.4353	3.0991	1.4757	2.1790	66	0.3638
2253.5876	3.0936	1.4967	2.1457	59	0.3406
2253.7400	3.0761	1.4325	2.1340	60	0.3056
2253.8923	3.2442	1.4325	2.1380	61	0.2996
2254.0449	3.2998	1.3748	2.1358	64	0.3161
2254.1973	3.4084	1.3787	2.1310	64	0.3189
2254.3496	3.4826	1.3742	2.1337	64	0.3147
2254.5020	3.4955	1.4712	2.1437	63	0.3081
2254.6543	3.5016	1.4883	2.1547	66	0.3217
2254.8069	3.3376	1.4883	2.1571	71	0.3461
2254.9592	3.3023	1.5787	2.1527	73	0.3457
2255.1116	3.2316	1.5930	2.1389	71	0.3460
2255.2639	3.2087	1.5328	2.1410	67	0.3237
2255.4165	3.1783	1.5937	2.1496	64	0.3131
2255.5688	3.1870	1.5986	2.1599	63	0.2933
2255.7212	3.1816	1.5986	2.1583	63	0.3033
2255.8735	3.1508	1.5913	2.1577	61	0.3064
2256.0259	3.1849	1.5185	2.1591	61	0.3209
2256.1785	3.1693	1.4691	2.1578	62	0.3097
2256.3308	3.1510	1.5148	2.1617	63	0.3130
2256.4832	3.1525	1.5592	2.1526	63	0.3037
