~VERSION INFORMATION
 VERS.                 2.0:   CWLS LOG ASCII STANDARD - VERSION 2.0
 WRAP.                  NO:   SINGLE LINE PER DEPTH STEP
 CREA.                 5/20/2023 9:31:26 AM
#CREATED USING IP VERSION 4.5.2018.204 BY ADMIN ON 5/20/2023 9:31:26 AM
~WELL INFORMATION
#MNEM.UNIT       DATA                          DESCRIPTION MNEMONIC
#---------      ---------------------------   --------------------------
 STRT    .M         2078.0227                 : START DEPTH
 STOP    .M         2636.5688                 : STOP DEPTH
 STEP    .M         0.5000                    : STEP VALUE
 NULL    .      -999.0000                     : NULL VALUE
 DATE    .      5/20/2023                     : LAS file Creation Date
 WELL   .      ADWL-2    : Well Name
 COMP   .                : Company
 FLD    .                : Field
 UWI    .                : Unique Well Identifier (UWI)
 LOC    .                : Location
 RWS    .      -999      : Def_Rw
 WST    .      -999      : Def_Rwt
 PROV   .                : Province
 SRVC   .                : Contractor
 GDAT   .      WGS 84    : Geodatum
 LONG   .      0         : Longitude
 LATI   .      0         : Latitude
 COORDIN.                : Grid System
 XCOORD .                : X or East-West Coordinate
 YCOORD .                : Y or North-South Coordinate
~CURVE INFORMATION
#MNEM              UNIT       API CODE   Curve Type  Comments
#----------  --------------- ----------  ----------  -----------
 DEPTH      .M                         : Depth           
 VP         .KM/S                      : Vp    	     P-Wave Velocity
 VS         .KM/S                      : Vs 	     S-wave Velocity
 RHOB       .Gr/CC                     : RHOB        Density
 GR	    .GAPI		       : GR 	     Gamma Ray
 NPHI       .V/V                       : NPHI	     Neutron
 
~A  DEPTH         VP       VS    RHOB   GR      NPHI   
# ...
2286.5061	3.2082	1.5063	2.2392	67	0.2738
2286.6584	3.0990	1.4916	2.2601	70	0.2706
2286.8108	3.0302	1.4481	2.2910	74	0.2688
2286.9631	2.9501	1.4481	2.3333	79	0.3064
2287.1155	2.9616	1.4537	2.3356	85	0.3500
2287.2681	3.0567	1.5086	2.3371	91	0.3874
2287.4204	3.0873	1.5953	2.3192	91	0.3743
2287.5728	3.1387	1.6173	2.3155	87	0.3534
2287.7251	3.2333	1.6224	2.2799	80	0.3185
2287.8777	3.2630	1.6224	2.2506	74	0.2999
2288.0300	3.2688	1.5940	2.2330	71	0.2798
2288.1824	3.2570	1.5925	2.2198	69	0.2831
2288.3347	3.2525	1.5934	2.2136	67	0.2851
2288.4873	3.2533	1.6009	2.2045	63	0.2813
2288.6396	3.2621	1.5158	2.2067	64	0.2867
2288.7920	3.2552	1.5158	2.2161	65	0.2814
2288.9443	3.2711	1.6077	2.2254	66	0.2976
2289.0967	3.2768	1.6189	2.2277	66	0.2859
2289.2493	3.2903	1.6221	2.2060	64	0.2903
2289.4016	3.2829	1.6530	2.1927	63	0.2750
2289.5540	3.3493	1.6462	2.1959	64	0.2834
2289.7063	3.2636	1.6462	2.2378	61	0.2614
2289.8589	3.2765	1.6403	2.2805	61	0.2395
2290.0112	3.2121	1.6348	2.2764	59	0.2232
2290.1636	3.2333	1.6131	2.2270	60	0.2364
2290.3159	3.2417	1.5976	2.1911	61	0.2599
2290.4685	3.1643	1.5820	2.1916	58	0.2658
2290.6208	3.1778	1.5820	2.1961	57	0.2744
2290.7732	3.1889	1.5479	2.1929	56	0.2751
2290.9255	3.1912	1.5468	2.1879	59	0.2802
2291.0779	3.1949	1.5388	2.1856	61	0.2854
2291.2305	3.1919	1.5371	2.1877	63	0.2870
2291.3828	3.2158	1.5247	2.1894	61	0.2786
2291.5352	3.2006	1.5247	2.1866	61	0.2650
2291.6875	3.2143	1.5225	2.1869	59	0.2762
2291.8401	3.2241	1.5148	2.1884	60	0.2884
2291.9924	3.2240	1.5104	2.1900	60	0.3057
2292.1448	3.1968	1.5207	2.1892	63	0.2962
2292.2971	3.1693	1.5174	2.2229	70	0.3097
2292.4497	3.1380	1.5174	2.2760	76	0.3070
2292.6021	3.0575	1.5100	2.3117	81	0.3152
2292.7544	3.0460	1.5057	2.3045	84	0.3043
2292.9067	3.0956	1.5107	2.2789	87	0.3129
2293.0591	3.0963	1.5386	2.2668	86	0.3163
2293.2117	3.1185	1.5419	2.2735	84	0.3149
2293.3640	3.1708	1.5419	2.2774	82	0.3222
2293.5164	3.1916	1.5605	2.2632	81	0.3296
2293.6687	3.2143	1.5729	2.2384	76	0.3242
2293.8213	3.2137	1.5830	2.2078	70	0.2941
2293.9736	3.2114	1.5652	2.2034	67	0.2760
2294.1260	3.2011	1.5121	2.2036	66	0.2806
2294.2783	3.1942	1.5121	2.2091	63	0.2832
2294.4309	3.1909	1.4961	2.2052	62	0.2849
2294.5833	3.1856	1.5763	2.2086	61	0.2837
2294.7356	3.1803	1.5549	2.2050	62	0.2905
2294.8879	3.1836	1.5235	2.2027	62	0.2759
2295.0403	3.1937	1.5253	2.1992	63	0.2777
2295.1929	3.1955	1.5253	2.1988	65	0.2818
2295.3452	3.2072	1.5007	2.1994	65	0.2881
2295.4976	3.2109	1.5107	2.1950	67	0.2807
2295.6499	3.2415	1.5191	2.1892	67	0.2732
2295.8025	3.2290	1.5692	2.1987	67	0.2763
2295.9548	3.2214	1.5603	2.2035	62	0.2848
2296.1072	3.2183	1.5603	2.2031	62	0.2759
2296.2595	3.2195	1.5567	2.1945	63	0.2686
2296.4121	3.2117	1.5340	2.1996	64	0.2665
2296.5645	3.2012	1.5670	2.2031	63	0.2886
2296.7168	3.2048	1.5701	2.2044	65	0.2898
2296.8691	3.2082	1.5701	2.2082	67	0.2946
2297.0215	3.2202	1.5298	2.2042	66	0.2839
2297.1741	3.2028	1.5302	2.2031	63	0.2957
2297.3264	3.2215	1.5246	2.1954	65	0.2845
2297.4788	3.2168	1.4920	2.2086	66	0.2793
2297.6311	3.1820	1.4772	2.2134	69	0.2771
2297.7837	3.0679	1.4772	2.2234	69	0.2870
2297.9360	3.0153	1.4714	2.1899	66	0.2952
2298.0884	2.9949	1.3660	2.1692	61	0.3081
2298.2407	3.0008	1.3476	2.1526	56	0.3089
2298.3933	2.9755	1.3446	2.1600	57	0.3130
2298.5457	2.9987	1.3803	2.1556	60	0.3189
2298.6980	3.0085	1.3803	2.1688	66	0.3212
2298.8503	3.0792	1.3696	2.2034	71	0.3206
2299.0027	3.1237	1.3986	2.2735	78	0.3143
2299.1553	3.1222	1.4622	2.3228	86	0.3192
2299.3076	3.1431	1.5158	2.3434	87	0.3092
2299.4600	3.1451	1.2457	2.3130	85	0.3009
2299.6123	3.1327	1.2457	2.2920	81	0.2934
2299.7649	3.1491	1.4824	2.2588	78	0.2966
2299.9172	3.1182	1.5432	2.2200	72	0.2885
2300.0696	3.1065	1.5488	2.1868	63	0.2829
2300.2219	3.1245	1.4791	2.1720	58	0.2817
2300.3745	3.1363	1.4597	2.1730	58	0.2852
2300.5269	3.1765	1.4597	2.1719	61	0.2794
2300.6792	3.1103	1.4153	2.1784	64	0.2774
2300.8315	3.0873	1.4155	2.1846	63	0.2734
2300.9839	3.0965	1.3930	2.1986	63	0.2808
2301.1365	3.0556	1.3856	2.2020	63	0.3002
2301.2888	3.0804	1.3842	2.2102	66	0.3060
2301.4412	3.0772	1.3842	2.2221	69	0.3042
2301.5935	3.0908	1.3889	2.2535	78	0.2973
2301.7461	3.0863	1.3932	2.2739	80	0.3103
2301.8984	3.0703	1.3969	2.2600	80	0.3152
2302.0508	3.0421	1.4212	2.2257	76	0.3108
2302.2031	3.0887	1.4376	2.1999	76	0.3137
2302.3557	3.0860	1.4376	2.1903	79	0.3142
2302.5081	3.0800	1.4509	2.1875	82	0.3229
2302.6604	3.0614	1.4575	2.1899	82	0.3102
2302.8127	3.0456	1.4877	2.1899	79	0.3074
2302.9651	3.0156	1.4501	2.1795	75	0.3049
2303.1177	2.9542	1.4022	2.1694	75	0.3231
2303.2700	2.9389	1.4022	2.1602	74	0.3445
2303.4224	2.9251	1.4129	2.1679	77	0.3575
2303.5747	3.0035	1.4475	2.1999	80	0.3412
2303.7273	3.0079	1.4690	2.2516	88	0.3440
2303.8796	3.0530	1.5929	2.3146	96	0.3374
2304.0320	3.1319	1.6158	2.3450	100	0.3423
2304.1843	3.2181	1.6158	2.3306	89	0.3248
2304.3369	3.2176	1.6270	2.2642	77	0.3107
2304.4893	3.2204	1.6219	2.2098	65	0.3040
2304.6416	3.2165	1.6217	2.1830	62	0.2951
2304.7939	3.2180	1.6296	2.1894	60	0.2828
2304.9463	3.2213	1.6552	2.1905	59	0.2663
2305.0989	3.2412	1.6552	2.1906	59	0.2644
2305.2512	3.2345	1.6704	2.1823	60	0.2673
2305.4036	3.2864	1.6748	2.1878	60	0.2750
2305.5559	3.2615	1.6712	2.1882	62	0.2727
2305.7085	3.2892	1.6832	2.1915	60	0.2690
2305.8608	3.2670	1.6736	2.1920	61	0.2710
2306.0132	3.2437	1.6736	2.1952	56	0.2864
2306.1655	3.2343	1.6730	2.1916	59	0.3010
2306.3181	3.2221	1.6799	2.1816	61	0.2988
2306.4705	3.2258	1.6922	2.1840	63	0.2893
2306.6228	3.2246	1.6995	2.1837	61	0.2759
2306.7751	3.2133	1.7223	2.1879	59	0.2848
2306.9275	3.2214	1.7223	2.1934	59	0.2921
2307.0801	3.2252	1.7193	2.1972	58	0.2936
2307.2324	3.2218	1.6993	2.1961	58	0.2829
2307.3848	3.2231	1.6459	2.1966	60	0.2720
2307.5371	3.2165	1.6292	2.1935	62	0.2832
2307.6897	3.2035	1.6099	2.1901	61	0.2723
2307.8420	3.2232	1.6099	2.1842	60	0.2759
2307.9944	3.1988	1.5865	2.1850	58	0.2678
2308.1467	3.1933	1.5928	2.1856	58	0.2881
2308.2993	3.1934	1.5965	2.1945	58	0.2873
2308.4517	3.1980	1.6035	2.1989	58	0.2905
2308.6040	3.2009	1.6001	2.2023	58	0.2786
2308.7563	3.2027	1.6001	2.1995	59	0.2814
2308.9087	3.1715	1.5951	2.1958	59	0.2764
2309.0613	3.1593	1.5713	2.1944	62	0.2756
2309.2136	3.1561	1.5977	2.1910	62	0.2808
2309.3660	3.1620	1.6003	2.1861	63	0.2913
2309.5183	3.1650	1.6068	2.1950	63	0.3012
2309.6709	3.1950	1.6068	2.2160	64	0.3002
2309.8232	3.2263	1.6350	2.2240	67	0.2953
2309.9756	3.2606	1.6365	2.2124	65	0.2872
2310.1279	3.2613	1.6400	2.1872	64	0.2764
2310.2805	3.2572	1.6432	2.1794	61	0.2798
2310.4329	3.2463	1.6352	2.1809	62	0.2828
2310.5852	3.2369	1.6315	2.1842	60	0.2779
2310.7375	3.2250	1.6241	2.1811	60	0.2798
2310.8899	3.2598	1.6243	2.1883	60	0.2850
2311.0425	3.2524	1.6318	2.1882	57	0.2998
2311.1948	3.2611	1.6386	2.1871	59	0.2933
2311.3472	3.2522	1.6489	2.1871	57	0.2950
2311.4995	3.2803	1.6489	2.1772	59	0.2897
2311.6521	3.2824	1.6499	2.1794	57	0.2983
2311.8044	3.2414	1.6512	2.1850	60	0.2871
2311.9568	3.2418	1.6499	2.1891	59	0.2746
2312.1091	3.2499	1.6356	2.1840	61	0.2679
2312.2617	3.2540	1.6208	2.1756	61	0.2652
2312.4141	3.2604	1.6208	2.1689	61	0.2685
2312.5664	3.3147	1.6343	2.1661	60	0.2723
2312.7188	3.2916	1.6373	2.1778	60	0.2866
2312.8711	3.2951	1.6220	2.1835	59	0.2880
2313.0237	3.3075	1.6519	2.1821	59	0.2860
2313.1760	3.3268	1.6692	2.1841	58	0.2740
2313.3284	3.3340	1.6692	2.1909	59	0.2803
2313.4807	3.3403	1.6683	2.1992	59	0.2835
2313.6333	3.3308	1.6664	2.2038	60	0.2866
2313.7856	3.3292	1.6686	2.2098	60	0.2775
2313.9380	3.3274	1.6686	2.2081	60	0.2750
2314.0903	3.3189	1.6789	2.2047	60	0.2694
2314.2429	3.3088	1.6789	2.2031	59	0.2690
2314.3953	3.3101	1.6702	2.1996	60	0.2664
2314.5476	3.3116	1.6773	2.1962	59	0.2688
2314.7000	3.3127	1.6794	2.1963	60	0.2720
2314.8523	3.3184	1.6789	2.1946	58	0.2698
2315.0049	3.3158	1.6840	2.1921	59	0.2660
2315.1572	3.3213	1.6840	2.1898	58	0.2666
2315.3096	3.3136	1.6835	2.1940	58	0.2744
2315.4619	3.3111	1.6824	2.1984	57	0.2781
2315.6145	3.3058	1.6763	2.1965	57	0.2767
2315.7668	3.3067	1.6773	2.1931	57	0.2578
2315.9192	3.3140	1.6772	2.1963	58	0.2636
2316.0715	3.3247	1.6772	2.2033	58	0.2591
2316.2241	3.3424	1.6752	2.2056	57	0.2731
