~VERSION INFORMATION
 VERS.                 2.0:   CWLS LOG ASCII STANDARD - VERSION 2.0
 WRAP.                  NO:   SINGLE LINE PER DEPTH STEP
 CREA.                 5/20/2023 9:31:26 AM
#CREATED USING IP VERSION 4.5.2018.204 BY ADMIN ON 5/20/2023 9:31:26 AM
~WELL INFORMATION
#MNEM.UNIT       DATA                          DESCRIPTION MNEMONIC
#---------      ---------------------------   --------------------------
 STRT    .M         2078.0227                 : START DEPTH
 STOP    .M         2636.5688                 : STOP DEPTH
 STEP    .M         0.5000                    : STEP VALUE
 NULL    .      -999.0000                     : NULL VALUE
 DATE    .      5/20/2023                     : LAS file Creation Date
 WELL   .      ADWL-2    : Well Name
 COMP   .                : Company
 FLD    .                : Field
 UWI    .                : Unique Well Identifier (UWI)
 LOC    .                : Location
 RWS    .      -999      : Def_Rw
 WST    .      -999      : Def_Rwt
 PROV   .                : Province
 SRVC   .                : Contractor
 GDAT   .      WGS 84    : Geodatum
 LONG   .      0         : Longitude
 LATI   .      0         : Latitude
 COORDIN.                : Grid System
 XCOORD .                : X or East-West Coordinate
 YCOORD .                : Y or North-South Coordinate
~CURVE INFORMATION
#MNEM              UNIT       API CODE   Curve Type  Comments
#----------  --------------- ----------  ----------  -----------
 DEPTH      .M                         : Depth           
 VP         .KM/S                      : Vp    	     P-Wave Velocity
 VS         .KM/S                      : Vs 	     S-wave Velocity
 RHOB       .Gr/CC                     : RHOB        Density
 GR	    .GAPI		       : GR 	     Gamma Ray
 NPHI       .V/V                       : NPHI	     Neutron
 
~A  DEPTH         VP       VS    RHOB   GR      NPHI   
# ...
2256.6355	3.1944	1.5592	2.1567	61	0.2992
2256.7881	3.2106	1.7120	2.1493	61	0.2927
2256.9404	3.2009	1.6679	2.1431	61	0.2873
2257.0928	3.2009	1.5970	2.1417	62	0.3049
2257.2451	3.2380	1.4650	2.1407	62	0.3165
2257.3977	3.2818	1.3112	2.1460	62	0.3307
2257.5500	3.1597	1.3112	2.1451	63	0.3096
2257.7024	3.0397	1.1829	2.1490	63	0.3110
2257.8547	2.9850	1.1764	2.1509	63	0.3088
2258.0071	2.7637	1.2017	2.1701	65	0.3184
2258.1597	2.7859	1.1665	2.1909	68	0.3084
2258.3120	2.8242	1.1665	2.2147	72	0.3150
2258.4644	2.8844	1.1942	2.2343	77	0.3284
2258.6167	2.9426	1.2513	2.2636	82	0.3465
2258.7693	3.1137	1.2576	2.2680	83	0.3504
2258.9216	3.2302	1.3551	2.2521	81	0.3622
2259.0740	3.3259	1.3551	2.2169	78	0.3459
2259.2263	3.3951	1.5009	2.1995	75	0.3357
2259.3789	3.3771	1.4937	2.1945	70	0.3063
2259.5312	3.3721	1.6129	2.1958	71	0.2931
2259.6836	3.2538	1.6280	2.1907	70	0.2851
2259.8359	3.0469	1.6280	2.1759	70	0.2700
2259.9883	2.9624	1.5291	2.1585	65	0.2744
2260.1409	2.9313	1.4973	2.1466	62	0.2790
2260.2932	2.8683	1.4237	2.1402	62	0.3070
2260.4456	2.8334	1.2511	2.1242	63	0.3208
2260.5979	2.7786	1.2026	2.1067	66	0.3276
2260.7505	2.7673	1.2026	2.0932	69	0.3335
2260.9028	2.9885	1.2168	2.0889	72	0.3399
2261.0552	2.9914	1.2414	2.0958	72	0.3679
2261.2075	3.0673	1.2460	2.1137	71	0.3947
2261.3601	2.9964	1.2473	2.1403	74	0.4206
2261.5125	2.9748	1.2473	2.1564	77	0.3991
2261.6648	3.0385	1.2575	2.1745	84	0.3704
2261.8171	2.9847	1.2552	2.1916	84	0.3349
2261.9695	2.9833	1.3625	2.1920	79	0.3360
2262.1221	2.9955	1.3843	2.2002	76	0.3165
2262.2744	2.9770	1.3891	2.2382	75	0.3083
2262.4268	2.9399	1.3891	2.2801	78	0.2894
2262.5791	2.9541	1.4268	2.2856	77	0.2856
2262.7317	2.9513	1.4419	2.2539	72	0.2908
2262.8840	2.9439	1.4542	2.2122	66	0.2928
2263.0364	2.9506	1.4671	2.1861	59	0.3055
2263.1887	2.9801	1.5321	2.1674	58	0.3033
2263.3413	3.0515	1.5321	2.1646	57	0.3157
2263.4937	3.0613	1.5996	2.1695	58	0.3107
2263.6460	3.1074	1.6437	2.1722	59	0.3072
2263.7983	3.1310	1.6623	2.1789	58	0.2951
2263.9507	3.1409	1.6681	2.1987	61	0.2866
2264.1033	3.1394	1.6680	2.2062	61	0.2791
2264.2556	3.1996	1.6680	2.2142	63	0.2738
2264.4080	3.1534	1.6584	2.2105	62	0.2763
2264.5603	3.2149	1.6412	2.2097	64	0.2847
2264.7129	3.2255	1.5965	2.2022	64	0.2820
2264.8652	3.2391	1.6295	2.1960	64	0.2787
2265.0176	3.2790	1.6262	2.1905	64	0.2793
2265.1699	3.2116	1.6262	2.1911	62	0.2809
2265.3225	3.2139	1.6234	2.1945	62	0.2886
2265.4749	3.1871	1.5964	2.2049	61	0.2705
2265.6272	3.1629	1.5445	2.2085	60	0.2696
2265.7795	3.1525	1.5417	2.1983	59	0.2709
2265.9319	3.1599	1.5317	2.1875	61	0.2968
2266.0845	3.0846	1.5317	2.1764	66	0.3055
2266.2368	3.0618	1.5217	2.1751	69	0.3091
2266.3892	3.0734	1.5178	2.1758	67	0.3094
2266.5415	3.0731	1.5151	2.1707	64	0.3034
2266.6941	3.0759	1.5139	2.1692	65	0.2916
2266.8464	3.1476	1.5145	2.1747	69	0.3058
2266.9988	3.1920	1.5113	2.1780	71	0.3078
2267.1511	3.1684	1.5197	2.1684	67	0.3122
2267.3037	3.1730	1.5922	2.1688	63	0.2772
2267.4561	3.1741	1.5998	2.1812	61	0.2733
2267.6084	3.1606	1.6125	2.1965	61	0.2590
2267.7607	3.1609	1.4615	2.2044	62	0.2639
2267.9131	3.2117	1.4615	2.2090	60	0.2648
2268.0657	3.1944	1.4730	2.2038	63	0.2818
2268.2180	3.1792	1.6068	2.1947	64	0.2910
2268.3704	3.1625	1.6235	2.1873	66	0.3099
2268.5227	3.1479	1.5914	2.1756	62	0.3078
2268.6753	3.1498	1.5936	2.1713	63	0.3167
2268.8276	3.2274	1.5936	2.1745	62	0.2993
2268.9800	3.2419	1.5955	2.1763	63	0.3051
2269.1323	3.1815	1.5089	2.1775	60	0.2935
2269.2849	3.1789	1.5101	2.1790	62	0.2892
2269.4373	3.1737	1.5043	2.1829	64	0.2852
2269.5896	3.1996	1.5056	2.1904	67	0.2842
2269.7419	3.1791	1.5056	2.1923	65	0.2875
2269.8943	3.1931	1.5849	2.1837	66	0.2852
2270.0469	3.1944	1.5055	2.1789	66	0.2831
2270.1992	3.1937	1.5053	2.1728	67	0.2843
2270.3516	3.2543	1.4897	2.1753	65	0.2880
2270.5039	3.2836	1.4489	2.1790	66	0.2881
2270.6565	3.2623	1.4489	2.1871	69	0.2971
2270.8088	3.1280	1.4763	2.1998	74	0.2915
2270.9612	3.0934	1.5075	2.2394	79	0.2866
2271.1135	3.0771	1.3892	2.2645	79	0.2692
2271.2661	3.0225	1.4342	2.2510	74	0.2706
2271.4185	2.9774	1.4090	2.2089	71	0.2834
2271.5708	2.9420	1.4090	2.1793	69	0.2965
2271.7231	2.9286	1.3709	2.1825	70	0.3093
2271.8755	2.9298	1.3679	2.1889	68	0.3116
2272.0281	2.9103	1.3706	2.1917	69	0.3450
2272.1804	2.9585	1.4280	2.1774	72	0.3558
2272.3328	3.0031	1.4710	2.1728	73	0.3559
2272.4851	3.0093	1.4710	2.1822	74	0.3277
2272.6377	3.0984	1.4894	2.2007	71	0.3090
2272.7900	3.1156	1.4965	2.1939	70	0.3125
2272.9424	3.1286	1.4509	2.1749	69	0.3065
2273.0947	3.1524	1.5084	2.1680	64	0.3048
2273.2473	3.1286	1.4554	2.1787	62	0.2891
2273.3997	3.0571	1.4554	2.1839	58	0.2854
2273.5520	2.9642	1.3965	2.1859	59	0.2811
2273.7043	2.9437	1.3849	2.1883	60	0.2775
2273.8567	2.9265	1.3768	2.1941	63	0.2724
2274.0093	2.9239	1.2695	2.2237	66	0.2867
2274.1616	2.9428	1.2677	2.2563	72	0.3092
2274.3140	2.9313	1.4227	2.2891	78	0.3234
2274.4663	2.9345	1.4118	2.2858	79	0.3139
2274.6189	2.9237	1.3791	2.2499	77	0.3064
2274.7712	2.9035	1.3795	2.2221	72	0.3008
2274.9236	2.9673	1.4046	2.2200	74	0.3184
2275.0759	3.0285	1.4046	2.2228	73	0.3104
2275.2285	3.1213	1.4677	2.2082	71	0.3102
2275.3809	3.1308	1.5305	2.1827	68	0.2999
2275.5332	3.1245	1.5496	2.1681	64	0.3016
2275.6855	3.1657	1.5358	2.1670	63	0.3014
2275.8379	3.1955	1.5197	2.1639	61	0.2871
2275.9905	3.2161	1.5197	2.1602	63	0.2827
2276.1428	3.2449	1.5196	2.1587	63	0.2792
2276.2952	3.2517	1.3906	2.1686	64	0.2784
2276.4475	3.2725	1.5806	2.1866	62	0.2844
2276.6001	3.2608	1.6464	2.1966	63	0.2825
2276.7524	3.2564	1.6667	2.1968	61	0.2804
2276.9048	3.3053	1.6667	2.1921	61	0.2702
2277.0571	3.3208	1.6436	2.1954	62	0.2701
2277.2097	3.3419	1.6274	2.2011	61	0.2691
2277.3621	3.3019	1.6207	2.2074	61	0.2788
2277.5144	3.1846	1.5464	2.1998	61	0.2802
2277.6667	3.0785	1.5201	2.2024	67	0.2904
2277.8191	2.9938	1.5201	2.2037	66	0.2761
2277.9717	2.9951	1.5164	2.2047	66	0.2792
2278.1240	3.0216	1.5112	2.2079	63	0.2977
2278.2764	3.0322	1.5733	2.2398	72	0.3466
2278.4287	3.1071	1.5989	2.2808	77	0.3556
2278.5813	3.2226	1.6309	2.3027	77	0.3288
2278.7336	3.2395	1.6309	2.2625	68	0.2866
2278.8860	3.2446	1.6263	2.2252	63	0.2770
2279.0383	3.2559	1.5900	2.1979	63	0.2891
2279.1909	3.2602	1.6103	2.1986	64	0.2994
2279.3433	3.2631	1.5941	2.2015	64	0.3041
2279.4956	3.2482	1.6140	2.1972	64	0.2968
2279.6479	3.2836	1.6140	2.1957	66	0.2938
2279.8003	3.2866	1.6206	2.1963	64	0.2897
2279.9529	3.2971	1.6245	2.2060	65	0.2892
2280.1052	3.2926	1.6320	2.2059	66	0.2859
2280.2576	3.2624	1.6590	2.2009	64	0.2808
2280.4099	3.2631	1.6723	2.1993	64	0.2942
2280.5625	3.2639	1.6723	2.2132	62	0.2993
2280.7148	3.2762	1.6765	2.2344	67	0.3108
2280.8672	3.2879	1.6885	2.2561	70	0.3039
2281.0195	3.2889	1.6747	2.2652	74	0.2995
2281.1721	3.2645	1.6700	2.2699	78	0.2873
2281.3245	3.2290	1.6667	2.2621	78	0.2825
2281.4768	3.2372	1.6667	2.2391	75	0.2793
2281.6292	3.2315	1.6626	2.2135	70	0.2833
2281.7815	3.2346	1.6533	2.2083	68	0.2774
2281.9341	3.2295	1.6602	2.2290	70	0.2808
2282.0864	3.2343	1.6265	2.2317	69	0.2738
2282.2388	3.2622	1.6215	2.2188	66	0.2753
2282.3911	3.2796	1.6215	2.1996	63	0.2765
2282.5437	3.2851	1.6311	2.1999	62	0.2877
2282.6960	3.2954	1.6517	2.2029	65	0.2822
2282.8484	3.2978	1.6770	2.2155	66	0.2686
2283.0007	3.2866	1.4996	2.2336	69	0.2590
2283.1533	3.2910	1.6530	2.2472	68	0.2653
2283.3057	3.3010	1.6530	2.2374	65	0.2729
2283.4580	3.3151	1.6389	2.2232	61	0.2709
2283.6104	3.3197	1.6391	2.2082	63	0.2688
2283.7627	3.3335	1.6501	2.2180	67	0.2632
2283.9153	3.3580	1.6497	2.2376	73	0.2629
2284.0676	3.3054	1.6573	2.2724	74	0.2592
2284.2200	3.2924	1.6573	2.2820	76	0.2574
2284.3723	3.2833	1.6154	2.2867	74	0.2570
2284.5249	3.2730	1.6182	2.2725	70	0.2602
2284.6772	3.2814	1.6143	2.2507	68	0.2779
2284.8296	3.2782	1.5681	2.2225	64	0.2836
2284.9819	3.2631	1.5745	2.2030	64	0.2855
2285.1345	3.2613	1.5752	2.2067	63	0.2770
2285.2869	3.2744	1.5752	2.2121	63	0.2691
2285.4392	3.2777	1.5885	2.2207	63	0.2586
2285.5916	3.2811	1.6124	2.2252	62	0.2561
2285.7439	3.3019	1.6009	2.2270	62	0.2583
2285.8965	3.3289	1.5995	2.2309	63	0.2663
2286.0488	3.3461	1.5995	2.2256	64	0.2593
2286.2012	3.3457	1.5936	2.2270	65	0.2674
2286.3535	3.2205	1.5705	2.2251	64	0.2709
