~VERSION INFORMATION
 VERS.                 2.0:   CWLS LOG ASCII STANDARD - VERSION 2.0
 WRAP.                  NO:   SINGLE LINE PER DEPTH STEP
 CREA.                 5/20/2023 9:31:26 AM
#CREATED USING IP VERSION 4.5.2018.204 BY ADMIN ON 5/20/2023 9:31:26 AM
~WELL INFORMATION
#MNEM.UNIT       DATA                          DESCRIPTION MNEMONIC
#---------      ---------------------------   --------------------------
 STRT    .M         2078.0227                 : START DEPTH
 STOP    .M         2636.5688                 : STOP DEPTH
 STEP    .M         0.5000                    : STEP VALUE
 NULL    .      -999.0000                     : NULL VALUE
 DATE    .      5/20/2023                     : LAS file Creation Date
 WELL   .      ADWL-2    : Well Name
 COMP   .                : Company
 FLD    .                : Field
 UWI    .                : Unique Well Identifier (UWI)
 LOC    .                : Location
 RWS    .      -999      : Def_Rw
 WST    .      -999      : Def_Rwt
 PROV   .                : Province
 SRVC   .                : Contractor
 GDAT   .      WGS 84    : Geodatum
 LONG   .      0         : Longitude
 LATI   .      0         : Latitude
 COORDIN.                : Grid System
 XCOORD .                : X or East-West Coordinate
 YCOORD .                : Y or North-South Coordinate
~CURVE INFORMATION
#MNEM              UNIT       API CODE   Curve Type  Comments
#----------  --------------- ----------  ----------  -----------
 DEPTH      .M                         : Depth           
 VP         .KM/S                      : Vp    	     P-Wave Velocity
 VS         .KM/S                      : Vs 	     S-wave Velocity
 RHOB       .Gr/CC                     : RHOB        Density
 GR	    .GAPI		       : GR 	     Gamma Ray
 NPHI       .V/V                       : NPHI	     Neutron
 
~A  DEPTH         VP       VS    RHOB   GR      NPHI   
# ...
2316.3765	3.3448	1.6776	2.2102	57	0.2699
2316.5288	3.3443	1.6943	2.2097	58	0.2700
2316.6812	3.3297	1.6933	2.2123	58	0.2759
2316.8335	3.3103	1.6896	2.2031	58	0.2749
2316.9861	3.3084	1.6896	2.2018	58	0.2849
2317.1384	3.2994	1.6886	2.1961	59	0.2808
2317.2908	3.3033	1.6813	2.1968	61	0.2857
2317.4431	3.3079	1.6723	2.1878	61	0.2793
2317.5957	3.3040	1.6686	2.1937	61	0.2786
2317.7480	3.3294	1.6752	2.1943	59	0.2870
2317.9004	3.3318	1.6752	2.2021	57	0.2873
2318.0527	3.3141	1.6752	2.2009	57	0.2844
2318.2051	3.3269	1.6720	2.2056	60	0.2709
2318.3577	3.3197	1.6768	2.2044	62	0.2673
2318.5100	3.3196	1.6859	2.2010	64	0.2666
2318.6624	3.3114	1.6866	2.1889	62	0.2723
2318.8147	3.3122	1.6866	2.1849	64	0.2895
2318.9673	3.3058	1.6797	2.1823	63	0.2991
2319.1196	3.3019	1.6875	2.1924	64	0.3021
2319.2720	3.2987	1.6863	2.1925	61	0.2831
2319.4243	3.3018	1.7112	2.1946	61	0.2753
2319.5769	3.2957	1.7051	2.1981	61	0.2704
2319.7292	3.2854	1.7051	2.1994	64	0.2716
2319.8816	3.2855	1.7038	2.1996	63	0.2638
2320.0339	3.2868	1.7140	2.1995	64	0.2724
2320.1863	3.2887	1.5125	2.2034	62	0.2837
2320.3389	3.2770	1.4859	2.2109	63	0.2948
2320.4912	3.2759	1.5268	2.2101	62	0.2812
2320.6436	3.2651	1.5268	2.2144	59	0.2833
2320.7959	3.2929	1.4855	2.2051	59	0.2792
2320.9485	3.2925	1.4898	2.1971	62	0.2894
2321.1008	3.3007	1.5941	2.1777	64	0.2785
2321.2532	3.3006	1.6400	2.1727	63	0.2727
2321.4055	3.3323	1.6587	2.1774	62	0.2717
2321.5581	3.3546	1.6587	2.1947	64	0.2710
2321.7104	3.3636	1.6746	2.2026	65	0.2708
2321.8628	3.3592	1.6289	2.2073	65	0.2669
2322.0151	3.2945	1.6608	2.2092	65	0.2708
2322.1675	3.3071	1.6608	2.2163	64	0.2716
2322.3201	3.2398	1.6608	2.2178	61	0.2689
2322.4724	3.2460	1.6323	2.2092	60	0.2740
2322.6248	3.2257	1.6016	2.1960	62	0.2892
2322.7771	3.2327	1.5603	2.1868	65	0.2982
2322.9297	3.2093	1.5968	2.1884	66	0.3024
2323.0820	3.2344	1.4827	2.2010	64	0.2992
2323.2344	3.2723	1.4827	2.2103	63	0.2956
2323.3867	3.2270	1.5766	2.2198	64	0.2912
2323.5393	3.1918	1.6077	2.2341	67	0.2791
2323.6917	3.1645	1.5281	2.2364	68	0.2749
2323.8440	3.0886	1.4561	2.2204	68	0.2758
2323.9963	2.9694	1.4921	2.1999	66	0.2958
2324.1487	2.9527	1.4921	2.2158	70	0.3017
2324.3013	2.9331	1.4161	2.2580	75	0.3110
2324.4536	2.9806	1.3980	2.2998	81	0.3269
2324.6060	3.0118	1.4473	2.3054	83	0.3462
2324.7583	3.0479	1.5087	2.3167	86	0.3764
2324.9109	3.1613	1.5798	2.2905	85	0.3586
2325.0632	3.1920	1.5798	2.2601	80	0.3572
2325.2156	3.1961	1.5746	2.2253	70	0.3183
2325.3679	3.1968	1.5726	2.2052	61	0.3120
2325.5205	3.2166	1.5908	2.1966	57	0.3012
2325.6729	3.2235	1.5590	2.2004	56	0.2889
2325.8252	3.1338	1.5590	2.2033	58	0.2761
2325.9775	2.9751	1.4812	2.2025	61	0.2619
2326.1299	2.9318	1.3885	2.2069	62	0.2764
2326.2825	2.8954	1.3583	2.2006	63	0.2828
2326.4348	2.8807	1.3501	2.1935	64	0.3094
2326.5872	2.8826	1.3501	2.2026	75	0.3442
2326.7395	3.0201	1.3686	2.2370	88	0.3675
2326.8921	3.0160	1.3105	2.2754	95	0.3548
2327.0444	2.9657	1.2598	2.3103	95	0.3230
2327.1968	2.7873	1.2429	2.3277	91	0.3033
2327.3491	2.7673	1.2419	2.3269	93	0.3249
2327.5017	2.8084	1.3156	2.3007	94	0.3776
2327.6541	2.8444	1.3176	2.2107	99	0.4359
2327.8064	3.0005	1.4010	2.1656	104	0.4768
2327.9587	3.0657	1.5124	2.1939	104	0.4386
2328.1111	3.1013	1.5753	2.2466	100	0.3771
2328.2637	3.1232	1.5898	2.2927	91	0.3100
2328.4160	3.1133	1.6058	2.2956	84	0.3117
2328.5684	3.1199	1.6058	2.2801	78	0.3213
2328.7207	3.0729	1.6222	2.2452	71	0.3246
2328.8733	3.0774	1.6242	2.2034	67	0.2951
2329.0256	3.1035	1.6162	2.1712	64	0.2794
2329.1780	3.0983	1.6373	2.1664	63	0.2676
2329.3303	3.1115	1.6544	2.1691	64	0.2784
2329.4829	3.1209	1.6544	2.1685	62	0.2802
2329.6353	3.1862	1.6438	2.1675	63	0.2853
2329.7876	3.1611	1.6608	2.1684	60	0.2736
2329.9399	3.1735	1.6509	2.1750	62	0.2786
2330.0923	3.1507	1.6444	2.1785	63	0.2750
2330.2449	3.1524	1.6444	2.1844	64	0.2768
2330.3972	3.1633	1.6394	2.1814	62	0.2624
2330.5496	3.1850	1.6373	2.1816	61	0.2656
2330.7019	3.2065	1.6309	2.1828	61	0.2680
2330.8545	3.2597	1.6173	2.1820	60	0.2791
2331.0068	3.2235	1.6081	2.1946	61	0.2647
2331.1592	3.2336	1.6081	2.2006	65	0.2613
2331.3115	3.2388	1.5911	2.2073	67	0.2546
2331.4641	3.2614	1.5985	2.2076	67	0.2657
2331.6165	3.2609	1.5826	2.2030	65	0.2709
2331.7688	3.2707	1.5999	2.2039	65	0.2801
2331.9211	3.2712	1.5967	2.2105	66	0.2941
2332.0735	3.2682	1.5936	2.2214	68	0.2866
2332.2261	3.2732	1.5936	2.2273	68	0.2798
2332.3784	3.2531	1.5929	2.2314	67	0.2633
2332.5308	3.2679	1.5807	2.2368	66	0.2499
2332.6831	3.2233	1.5534	2.2461	65	0.2535
2332.8357	3.1763	1.4168	2.2491	63	0.2443
2332.9880	3.1038	1.4168	2.2591	65	0.2548
2333.1404	3.0707	1.5191	2.2725	67	0.2553
2333.2927	3.0083	1.4918	2.3019	76	0.2657
2333.4453	3.0163	1.5476	2.3089	83	0.2994
2333.5977	3.0510	1.5009	2.3297	91	0.3227
2333.7500	3.1624	1.5992	2.3284	96	0.3450
2333.9023	3.1729	1.6101	2.3339	93	0.3498
2334.0547	3.2001	1.6101	2.2957	90	0.3407
2334.2073	3.2430	1.6232	2.2517	78	0.3188
2334.3596	3.2438	1.6246	2.2206	71	0.2845
2334.5120	3.2421	1.6299	2.2122	63	0.2729
2334.6643	3.2432	1.6204	2.2082	61	0.2679
2334.8169	3.2557	1.6227	2.2096	62	0.2705
2334.9692	3.2524	1.6227	2.2122	64	0.2735
2335.1216	3.2397	1.5928	2.2107	65	0.2693
2335.2739	3.2305	1.5985	2.2107	65	0.2779
2335.4265	3.1990	1.6206	2.2164	65	0.2846
2335.5789	3.2002	1.5390	2.2159	66	0.2875
2335.7312	3.1860	1.5019	2.2152	63	0.2684
2335.8835	3.1884	1.5019	2.2046	61	0.2572
2336.0359	3.1816	1.6245	2.2027	61	0.2633
2336.1885	3.1836	1.6091	2.1922	61	0.2762
2336.3408	3.1997	1.6068	2.1868	60	0.2820
2336.4932	3.1946	1.6746	2.1826	60	0.2820
2336.6455	3.4747	1.6746	2.1899	60	0.2769
2336.7981	3.4261	1.7382	2.1991	61	0.2706
2336.9504	3.4786	1.6507	2.2063	64	0.2723
2337.1028	3.4966	1.6643	2.2140	62	0.2875
2337.2551	3.5552	1.6944	2.2281	66	0.2935
2337.4077	3.4708	1.6643	2.2790	63	0.2715
2337.5601	3.3964	1.6643	2.3383	62	0.2254
2337.7124	3.2335	1.6900	2.4047	60	0.1974
2337.8647	3.2133	1.4984	2.3626	59	0.2160
2338.0171	3.2148	1.4972	2.2858	61	0.2589
2338.1697	3.2152	1.4756	2.2138	59	0.2854
2338.3220	3.2260	1.4756	2.1901	61	0.2917
2338.4744	3.2269	1.5539	2.1856	63	0.2921
2338.6267	3.2144	1.5291	2.1903	65	0.2949
2338.7793	3.1954	1.4530	2.1949	64	0.2892
2338.9316	3.1462	1.4465	2.2014	62	0.2814
2339.0840	3.1382	1.4465	2.2108	64	0.2835
2339.2363	3.1250	1.4337	2.2186	69	0.2845
2339.3889	3.1286	1.4234	2.2510	77	0.3017
2339.5413	3.0798	1.2006	2.2969	86	0.3096
2339.6936	2.9712	1.1504	2.3545	89	0.3257
2339.8459	2.9839	1.1487	2.3826	93	0.3056
2339.9983	3.0155	1.1171	2.3738	95	0.2947
2340.1509	3.0127	1.1435	2.1819	96	0.3484
2340.3032	3.2060	1.2147	2.0305	99	0.4311
2340.4556	3.1329	1.2834	1.9710	102	0.4982
2340.6079	3.0590	1.3077	2.0666	108	0.4965
2340.7605	3.1097	1.3077	2.1912	107	0.4265
2340.9128	3.0780	1.3743	2.2435	101	0.3630
2341.0652	3.0090	1.3441	2.2484	93	0.3125
2341.2175	2.9486	1.3277	2.2299	84	0.3144
2341.3701	2.9531	1.3339	2.2053	78	0.3172
2341.5225	2.9318	1.3339	2.2140	77	0.3168
2341.6748	2.9215	1.3394	2.2519	83	0.3234
2341.8271	2.9764	1.3726	2.3067	87	0.3227
2341.9795	2.9914	1.3948	2.3353	90	0.3379
2342.1321	3.0233	1.4149	2.3426	93	0.3289
2342.2844	3.0396	1.4501	2.3584	96	0.3411
2342.4368	3.0782	1.4501	2.3396	97	0.3277
2342.5891	3.1129	1.4604	2.3180	92	0.3241
2342.7417	3.1348	1.4940	2.2841	85	0.3067
2342.8940	3.1653	1.5008	2.2729	80	0.3053
2343.0464	3.1732	1.5040	2.2390	78	0.3011
2343.1987	3.1827	1.5184	2.2157	74	0.2984
2343.3513	3.1903	1.5184	2.2014	70	0.2822
2343.5037	3.2560	1.5183	2.2169	67	0.2683
2343.6560	3.2782	1.5168	2.2326	66	0.2593
2343.8083	3.2654	1.5227	2.2417	66	0.2622
2343.9607	3.2225	1.4957	2.2367	66	0.2625
2344.1133	3.1992	1.4957	2.2229	67	0.2583
2344.2656	3.1881	1.4922	2.2207	68	0.2635
2344.4180	3.1723	1.4678	2.2224	68	0.2757
2344.5703	3.1310	1.5010	2.2210	70	0.2827
2344.7229	3.1407	1.5246	2.2088	69	0.2785
2344.8752	3.1553	1.5246	2.1956	69	0.2834
2345.0276	3.1531	1.5167	2.1889	70	0.2921
2345.1799	3.1639	1.5006	2.1870	70	0.3011
2345.3325	3.2111	1.4926	2.1865	70	0.2872
2345.4849	3.2401	1.4926	2.1859	69	0.2788
2345.6372	3.1416	1.5063	2.1893	67	0.2873
2345.7896	3.1476	1.5147	2.1887	65	0.3008
2345.9419	3.1383	1.5173	2.1908	64	0.3126
