~VERSION INFORMATION
 VERS.                 2.0:   CWLS LOG ASCII STANDARD - VERSION 2.0
 WRAP.                  NO:   SINGLE LINE PER DEPTH STEP
 CREA.                 5/20/2023 9:31:26 AM
#CREATED USING IP VERSION 4.5.2018.204 BY ADMIN ON 5/20/2023 9:31:26 AM
~WELL INFORMATION
#MNEM.UNIT       DATA                          DESCRIPTION MNEMONIC
#---------      ---------------------------   --------------------------
 STRT    .M         2078.0227                 : START DEPTH
 STOP    .M         2636.5688                 : STOP DEPTH
 STEP    .M         0.5000                    : STEP VALUE
 NULL    .      -999.0000                     : NULL VALUE
 DATE    .      5/20/2023                     : LAS file Creation Date
 WELL   .      ADWL-2    : Well Name
 COMP   .                : Company
 FLD    .                : Field
 UWI    .                : Unique Well Identifier (UWI)
 LOC    .                : Location
 RWS    .      -999      : Def_Rw
 WST    .      -999      : Def_Rwt
 PROV   .                : Province
 SRVC   .                : Contractor
 GDAT   .      WGS 84    : Geodatum
 LONG   .      0         : Longitude
 LATI   .      0         : Latitude
 COORDIN.                : Grid System
 XCOORD .                : X or East-West Coordinate
 YCOORD .                : Y or North-South Coordinate
~CURVE INFORMATION
#MNEM              UNIT       API CODE   Curve Type  Comments
#----------  --------------- ----------  ----------  -----------
 DEPTH      .M                         : Depth           
 VP         .KM/S                      : Vp    	     P-Wave Velocity
 VS         .KM/S                      : Vs 	     S-wave Velocity
 RHOB       .Gr/CC                     : RHOB        Density
 GR	    .GAPI		       : GR 	     Gamma Ray
 NPHI       .V/V                       : NPHI	     Neutron
 
~A  DEPTH         VP       VS    RHOB   GR      NPHI   
# ...
2137.1541	2.4553	0.9837	2.0533	80	0.4115
2137.3064	2.4633	0.9603	2.2119	74	0.3715
2137.4587	2.4414	0.9238	2.2403	76	0.4081
2137.6111	2.4436	0.9379	2.1521	83	0.4113
2137.7637	2.4432	0.9379	2.0703	89	0.4562
2137.9160	2.3827	0.8908	2.1032	92	0.4649
2138.0684	2.3510	0.8941	2.1646	91	0.5058
2138.2207	2.3230	0.8898	2.2194	91	0.4624
2138.3733	2.3056	0.8151	2.2524	92	0.4463
2138.5256	2.2832	0.9431	2.2114	91	0.4351
2138.6780	2.2995	0.9431	2.0906	90	0.4173
2138.8303	2.3626	0.9442	2.0340	86	0.4211
2138.9829	2.3720	1.0205	2.0251	89	0.4326
2139.1353	2.3603	0.9333	2.0689	88	0.4542
2139.2876	2.3817	0.9769	2.0840	88	0.4542
2139.4399	2.3838	0.9769	2.1052	89	0.4318
2139.5923	2.3884	0.9577	2.1038	92	0.4549
2139.7449	2.3926	0.9472	2.1257	95	0.4457
2139.8972	2.3990	0.9582	2.1834	97	0.4357
2140.0496	2.3651	0.9520	2.1868	101	0.4249
2140.2019	2.3373	0.9419	2.1507	104	0.4135
2140.3545	2.3171	0.9433	2.1498	102	0.4157
2140.5068	2.3112	0.9601	2.1603	100	0.4094
2140.6592	2.3275	0.9194	2.1452	96	0.4216
2140.8115	2.3284	0.9192	2.1088	98	0.4093
2140.9641	2.3423	0.8630	2.0229	95	0.4191
2141.1165	2.3462	0.8643	1.9415	98	0.4656
2141.2688	2.4041	0.9614	1.9051	95	0.5087
2141.4211	2.3702	0.9173	1.9686	97	0.5067
2141.5735	2.4136	1.0397	2.0261	95	0.4693
2141.7261	2.5389	1.0210	2.0105	91	0.4624
2141.8784	2.5561	1.0234	2.0008	88	0.4298
2142.0308	2.3905	1.0234	2.0508	86	0.4147
2142.1831	2.4384	1.0670	2.2238	81	0.4003
2142.3357	2.4144	0.9649	2.2151	80	0.4091
2142.4880	2.3301	0.9397	2.0624	82	0.4303
2142.6404	2.3281	0.9610	1.9084	82	0.4128
2142.7927	2.3562	0.9625	1.8453	80	0.4563
2142.9453	2.4039	0.9434	1.8216	77	0.4567
2143.0977	2.4705	1.0339	1.8607	84	0.5120
2143.2500	2.5150	1.0345	1.9232	86	0.4674
2143.4023	2.4880	0.9995	2.0465	91	0.4600
2143.5547	2.5351	0.9931	2.0755	90	0.4587
2143.7073	2.5489	0.9685	2.0544	90	0.4487
2143.8596	2.4802	0.9521	2.0614	87	0.4306
2144.0120	2.4611	0.9141	2.1149	85	0.4029
2144.1643	2.4135	0.9664	2.1569	84	0.3888
2144.3169	2.3620	0.9679	2.2035	86	0.3804
2144.4692	2.3417	0.9344	2.2201	88	0.3732
2144.6216	2.4191	1.0453	2.1338	89	0.4114
2144.7739	2.4565	1.0985	2.0370	91	0.4232
2144.9265	2.4421	0.9986	2.0011	91	0.4362
2145.0789	2.4518	0.9737	2.0505	92	0.4283
2145.2312	2.4319	0.9784	2.0457	87	0.4259
2145.3835	2.3972	0.9858	1.9745	85	0.4363
2145.5359	2.4307	0.9825	1.9226	83	0.4544
2145.6885	2.4745	0.9540	1.9980	87	0.4507
2145.8408	2.5223	0.9838	2.1144	84	0.4551
2145.9932	2.5698	0.9838	2.1870	86	0.4440
2146.1455	2.5764	1.0485	2.1452	86	0.4447
2146.2981	2.5727	1.0860	2.1834	87	0.4610
2146.4504	2.5785	1.0604	2.2304	84	0.4358
2146.6028	2.5192	1.1056	2.2717	83	0.4338
2146.7551	2.4929	1.1056	2.3004	82	0.3941
2146.9077	2.4842	1.1038	2.3136	83	0.3881
2147.0601	2.4819	1.1379	2.3120	81	0.3462
2147.2124	2.4931	1.0741	2.2656	83	0.3481
2147.3647	2.4646	1.0280	2.2073	83	0.3584
2147.5171	2.5293	1.0075	2.1545	88	0.4074
2147.6697	2.5338	1.0059	2.1688	90	0.4382
2147.8220	2.5476	1.0073	2.2164	95	0.4530
2147.9744	2.5190	1.0555	2.2554	92	0.4121
2148.1267	2.4969	1.0407	2.2935	87	0.3889
2148.2793	2.4523	1.0266	2.2778	81	0.3708
2148.4316	2.4752	1.0266	2.2440	77	0.3720
2148.5840	2.4073	1.0210	2.1988	83	0.3893
2148.7363	2.4468	1.0414	2.1821	89	0.3875
2148.8889	2.6073	1.0707	2.1726	95	0.4191
2149.0413	2.5773	1.0305	2.1473	93	0.4170
2149.1936	2.5962	1.0305	2.1221	92	0.4315
2149.3459	2.6154	1.0785	2.1732	86	0.4182
2149.4983	2.5622	0.9661	2.2245	80	0.4142
2149.6509	2.4122	0.9430	2.1724	74	0.4266
2149.8032	2.3412	0.9442	2.0742	75	0.4380
2149.9556	2.3630	0.9428	2.0682	82	0.4262
2150.1079	2.3754	0.9318	2.1594	86	0.3795
2150.2605	2.3882	0.9488	2.0666	87	0.3650
2150.4128	2.5251	1.0151	1.9526	88	0.3890
2150.5652	2.6227	1.0121	1.9065	90	0.4424
2150.7175	2.6200	1.0108	1.9733	90	0.4667
2150.8701	2.5744	0.9587	2.1070	85	0.4655
2151.0225	2.4362	0.9110	2.1894	83	0.4303
2151.1748	2.4113	0.9041	2.2722	85	0.3950
2151.3271	2.4587	0.8996	2.2404	88	0.3667
2151.4795	2.5029	0.9447	2.0251	88	0.3960
2151.6321	2.4745	0.9461	1.7985	89	0.4517
2151.7844	2.5827	1.0409	1.7478	91	0.4894
2151.9368	2.6107	1.0487	1.8625	91	0.4616
2152.0891	2.6070	1.0757	2.1051	87	0.4279
2152.2417	2.5821	1.0908	2.2434	85	0.4105
2152.3940	2.5292	1.0875	2.2557	82	0.3836
2152.5464	2.4967	1.0803	2.2944	83	0.3516
2152.6987	2.5158	1.0995	2.3069	80	0.3195
2152.8513	2.4781	0.9976	2.2513	81	0.3368
2153.0037	2.4397	0.9833	2.1916	83	0.4086
2153.1560	2.3752	0.9849	2.1700	87	0.4147
2153.3083	2.3688	0.9488	2.1985	83	0.4125
2153.4607	2.3638	0.9851	2.1707	83	0.3677
2153.6133	2.4429	0.9537	2.0849	78	0.3988
2153.7656	2.5107	1.0706	1.9880	83	0.4416
2153.9180	2.6413	1.0757	1.9125	82	0.4580
2154.0703	2.6690	1.1367	1.8845	85	0.4809
2154.2229	2.7732	1.1269	1.9379	79	0.4398
2154.3752	2.7548	1.2099	2.0815	77	0.3918
2154.5276	2.6734	1.2383	2.1954	74	0.3329
2154.6799	2.7101	1.1975	2.2192	79	0.3240
2154.8325	2.7386	1.1975	2.1974	80	0.3361
2154.9849	2.7787	1.1739	2.1644	78	0.3366
2155.1372	2.8010	1.1769	2.1568	73	0.3257
2155.2896	2.7224	1.1720	2.1612	68	0.3096
2155.4419	2.7496	1.0598	2.1615	67	0.2832
2155.5945	2.7608	1.0598	2.1830	71	0.2919
2155.7468	2.7624	1.2333	2.2020	71	0.3093
2155.8992	2.6932	1.3554	2.2078	71	0.3204
2156.0515	2.7328	1.3633	2.1985	65	0.3249
2156.2041	2.7361	1.3629	2.1764	62	0.3163
2156.3564	2.7065	1.2566	2.1610	59	0.3202
2156.5088	2.6951	1.2566	2.1609	57	0.3105
2156.6611	2.6608	1.3273	2.1576	56	0.3097
2156.8137	2.6807	1.3094	2.1552	54	0.3132
2156.9661	2.6279	1.4012	2.1483	55	0.3189
2157.1184	2.6298	1.4000	2.1417	56	0.3172
2157.2708	2.6091	1.4000	2.1336	58	0.3246
2157.4231	2.6233	1.2707	2.1255	57	0.3229
2157.5757	2.5908	1.1969	2.1235	56	0.3214
2157.7280	2.5550	1.1997	2.1132	57	0.3202
2157.8804	2.5316	1.2293	2.1073	59	0.3215
2158.0327	2.4510	1.2293	2.1159	60	0.3283
2158.1853	2.2096	1.0440	2.1162	58	0.3287
2158.3376	2.2001	1.0196	2.1143	57	0.3384
2158.4900	2.2384	0.9704	2.1038	56	0.3415
2158.6423	2.3236	0.9282	2.1041	57	0.3527
2158.7949	2.4217	1.0767	2.0975	62	0.3766
2158.9473	2.5119	1.0751	2.0833	65	0.3949
2159.0996	2.5805	1.1013	2.0743	65	0.4033
2159.2520	2.5686	1.1440	2.0712	62	0.3708
2159.4043	2.5817	1.1949	2.0693	59	0.3410
2159.5569	2.5928	1.2002	2.0825	58	0.3427
2159.7092	2.6065	1.2199	2.1124	58	0.3482
2159.8616	2.6167	1.2199	2.1577	58	0.3537
2160.0139	2.6318	1.2161	2.1860	60	0.3243
2160.1665	2.6215	1.3182	2.1749	60	0.3296
2160.3188	2.6281	1.3767	2.1418	60	0.3343
2160.4712	2.6071	1.3459	2.1245	54	0.3428
2160.6235	2.5821	1.3014	2.1484	53	0.3222
2160.7759	2.5445	1.3014	2.1936	53	0.3138
2160.9285	2.5125	1.1821	2.1981	55	0.3127
2161.0808	2.5328	1.1789	2.1575	57	0.3212
2161.2332	2.5687	1.1947	2.1104	55	0.3315
2161.3855	2.5682	1.1922	2.0833	56	0.3435
2161.5381	2.5290	1.2242	2.0686	55	0.3495
2161.6904	2.5107	1.2242	2.0670	57	0.3488
2161.8428	2.5379	1.3042	2.0722	55	0.3407
2161.9951	2.5451	1.3384	2.0892	53	0.3215
2162.1477	2.5525	1.3140	2.0993	55	0.3068
2162.3000	2.5357	1.3147	2.1006	55	0.3034
2162.4524	2.5048	1.4178	2.0998	59	0.3053
2162.6047	2.4989	1.4178	2.1059	55	0.2990
2162.7571	2.4740	1.3776	2.1047	57	0.2989
2162.9097	2.4631	1.4178	2.1006	55	0.2916
2163.0620	2.4704	1.3456	2.0940	54	0.3105
2163.2144	2.4325	1.3172	2.0833	52	0.3040
2163.3667	2.4442	1.2298	2.0739	52	0.3189
2163.5193	2.4320	1.0153	2.0655	53	0.3187
2163.6716	2.3825	1.0153	2.0608	55	0.3247
2163.8240	2.3731	1.0153	2.0637	57	0.3202
2163.9763	2.3785	0.7353	2.0871	61	0.3120
2164.1289	2.1895	0.7353	2.1054	61	0.3062
2164.2812	2.0659	0.7353	2.1096	62	0.2970
2164.4336	1.9979	1.0800	2.1006	61	0.3070
2164.5859	1.9894	1.0765	2.0967	63	0.3127
2164.7383	2.0097	1.1285	2.0698	68	0.3544
2164.8909	1.9647	1.0722	2.0125	80	0.4137
2165.0432	2.0330	0.9688	1.9693	90	0.4838
2165.1956	2.0267	0.9688	1.9632	96	0.5204
2165.3479	2.0232	0.8227	1.9979	88	0.4675
2165.5005	2.0475	1.0770	2.0466	84	0.4044
2165.6528	2.0191	1.2142	2.0940	82	0.3349
2165.8052	2.0314	1.1066	2.1131	85	0.3550
2165.9575	2.0348	1.1066	2.0952	88	0.3847
2166.1101	2.0390	1.0679	2.0762	88	0.4149
2166.2625	2.0320	1.0309	2.0639	92	0.4333
2166.4148	2.1172	0.9575	2.0671	88	0.4409
2166.5671	2.1722	0.9832	2.0675	85	0.4457
2166.7195	2.2675	0.9832	2.0648	77	0.4196
2166.8721	2.3330	1.0575	2.0551	72	0.4074
