~VERSION INFORMATION
 VERS.                 2.0:   CWLS LOG ASCII STANDARD - VERSION 2.0
 WRAP.                  NO:   SINGLE LINE PER DEPTH STEP
 CREA.                 5/20/2023 9:31:26 AM
#CREATED USING IP VERSION 4.5.2018.204 BY ADMIN ON 5/20/2023 9:31:26 AM
~WELL INFORMATION
#MNEM.UNIT       DATA                          DESCRIPTION MNEMONIC
#---------      ---------------------------   --------------------------
 STRT    .M         2078.0227                 : START DEPTH
 STOP    .M         2636.5688                 : STOP DEPTH
 STEP    .M         0.5000                    : STEP VALUE
 NULL    .      -999.0000                     : NULL VALUE
 DATE    .      5/20/2023                     : LAS file Creation Date
 WELL   .      ADWL-2    : Well Name
 COMP   .                : Company
 FLD    .                : Field
 UWI    .                : Unique Well Identifier (UWI)
 LOC    .                : Location
 RWS    .      -999      : Def_Rw
 WST    .      -999      : Def_Rwt
 PROV   .                : Province
 SRVC   .                : Contractor
 GDAT   .      WGS 84    : Geodatum
 LONG   .      0         : Longitude
 LATI   .      0         : Latitude
 COORDIN.                : Grid System
 XCOORD .                : X or East-West Coordinate
 YCOORD .                : Y or North-South Coordinate
~CURVE INFORMATION
#MNEM              UNIT       API CODE   Curve Type  Comments
#----------  --------------- ----------  ----------  -----------
 DEPTH      .M                         : Depth           
 VP         .KM/S                      : Vp    	     P-Wave Velocity
 VS         .KM/S                      : Vs 	     S-wave Velocity
 RHOB       .Gr/CC                     : RHOB        Density
 GR	    .GAPI		       : GR 	     Gamma Ray
 NPHI       .V/V                       : NPHI	     Neutron
 
~A  DEPTH         VP       VS    RHOB   GR      NPHI   
# ...
2107.5884	2.3404	0.9230	2.2453	109	0.4280
2107.7407	2.3355	0.9394	2.2439	109	0.4195
2107.8933	2.3367	0.9136	2.2407	106	0.4103
2108.0457	2.3207	0.9231	2.2480	100	0.4388
2108.1980	2.3114	0.9135	2.2604	92	0.4349
2108.3503	2.3079	0.9135	2.2634	90	0.4382
2108.5027	2.3103	0.9162	2.2585	94	0.4356
2108.6553	2.3081	0.9106	2.2387	102	0.4364
2108.8076	2.3039	0.9119	2.2286	107	0.4377
2108.9600	2.2937	0.8979	2.2286	110	0.4205
2109.1123	2.2877	0.8979	2.2349	111	0.4118
2109.2649	2.2859	0.8949	2.2268	107	0.4076
2109.4172	2.2865	0.8951	2.2276	106	0.4210
2109.5696	2.2911	0.8817	2.2199	104	0.4483
2109.7219	2.3045	0.8891	2.2209	106	0.4501
2109.8745	2.3049	0.8894	2.2250	108	0.4461
2110.0269	2.3066	0.8894	2.2344	104	0.4234
2110.1792	2.3093	0.8841	2.2352	104	0.4225
2110.3315	2.3009	0.8753	2.2340	101	0.4188
2110.4839	2.2755	0.8671	2.2267	104	0.4155
2110.6365	2.2695	0.8642	2.2384	105	0.4183
2110.7888	2.2730	0.8642	2.2453	104	0.4389
2110.9412	2.2868	0.8767	2.2553	103	0.4318
2111.0935	2.2889	0.8814	2.2578	103	0.4336
2111.2461	2.3017	0.8571	2.2519	103	0.4276
2111.3984	2.3182	0.8693	2.2502	104	0.4556
2111.5508	2.3249	0.8693	2.2412	107	0.4687
2111.7031	2.3449	0.8820	2.2493	108	0.4570
2111.8557	2.3644	0.9099	2.2533	109	0.4588
2112.0081	2.3727	0.9325	2.2502	107	0.4447
2112.1604	2.3776	0.9394	2.2536	106	0.4366
2112.3127	2.3814	0.9452	2.2671	104	0.4191
2112.4651	2.3936	0.9452	2.2827	102	0.4138
2112.6177	2.3892	0.9457	2.2799	99	0.4184
2112.7700	2.3849	0.9482	2.2880	99	0.4183
2112.9224	2.3938	0.9504	2.2856	101	0.4083
2113.0747	2.3987	0.9832	2.2894	105	0.4175
2113.2273	2.3991	0.9832	2.2782	103	0.4075
2113.3796	2.3912	0.9833	2.2807	99	0.4138
2113.5320	2.3855	0.9814	2.2823	96	0.4103
2113.6843	2.3965	0.9792	2.2844	94	0.4194
2113.8369	2.3805	0.9812	2.2816	95	0.4151
2113.9893	2.3979	0.9743	2.2799	99	0.4105
2114.1416	2.4183	0.9743	2.2836	102	0.4054
2114.2939	2.4114	0.9744	2.2870	106	0.4034
2114.4463	2.4198	0.9784	2.2839	109	0.3846
2114.5989	2.4243	0.9912	2.2787	115	0.3776
2114.7512	2.4246	1.0051	2.2782	116	0.3807
2114.9036	2.4319	1.0068	2.2768	112	0.3888
2115.0559	2.4246	0.9946	2.2817	107	0.3923
2115.2085	2.4253	1.0124	2.2922	106	0.3900
2115.3608	2.4356	1.0261	2.3016	105	0.3964
2115.5132	2.4514	1.0433	2.3051	106	0.3934
2115.6655	2.4531	1.0491	2.3041	103	0.4172
2115.8181	2.4544	1.0491	2.3056	105	0.4055
2115.9705	2.4521	1.0456	2.3007	105	0.3967
2116.1228	2.4496	1.0287	2.3032	104	0.3629
2116.2751	2.4532	1.0349	2.3049	103	0.3577
2116.4275	2.4587	1.0349	2.3022	103	0.3707
2116.5801	2.4508	1.0645	2.2919	108	0.3880
2116.7324	2.4558	1.0281	2.2807	108	0.3933
2116.8848	2.4694	1.0228	2.2741	111	0.3792
2117.0371	2.4598	1.0308	2.2975	103	0.3797
2117.1897	2.4457	1.0308	2.3268	96	0.3837
2117.3420	2.4241	1.0240	2.3323	90	0.3826
2117.4944	2.4134	1.0277	2.2979	95	0.3670
2117.6467	2.4021	1.0364	2.2753	99	0.3743
2117.7993	2.4109	1.0641	2.2835	106	0.3766
2117.9517	2.4179	1.0689	2.2891	111	0.3937
2118.1040	2.4383	1.0689	2.2798	115	0.4133
2118.2563	2.4625	1.0845	2.2814	119	0.4332
2118.4087	2.4615	1.1068	2.2837	118	0.4409
2118.5613	2.4634	1.0958	2.2883	115	0.4089
2118.7136	2.4663	1.0668	2.2981	108	0.3898
2118.8660	2.4637	1.0668	2.2923	103	0.3837
2119.0183	2.4781	1.1438	2.2884	102	0.3856
2119.1709	2.4842	1.2021	2.2822	97	0.3869
2119.3232	2.5035	1.1436	2.2941	92	0.3859
2119.4756	2.4918	1.1226	2.2941	88	0.3833
2119.6279	2.4673	1.1226	2.2987	89	0.3888
2119.7805	2.4553	1.1471	2.2987	89	0.3873
2119.9329	2.4527	1.1556	2.2957	89	0.3852
2120.0852	2.4800	1.1505	2.2827	83	0.3815
2120.2375	2.5232	1.1849	2.2614	85	0.3815
2120.3899	2.5572	1.1849	2.2508	85	0.3820
2120.5425	2.6299	1.2551	2.2606	90	0.3765
2120.6948	2.6361	1.2576	2.2770	91	0.3610
2120.8472	2.6247	1.2214	2.2886	89	0.3521
2120.9995	2.5950	1.1987	2.2865	89	0.3447
2121.1521	2.5581	1.1987	2.2809	88	0.3508
2121.3044	2.5477	1.1536	2.2742	86	0.3477
2121.4568	2.5439	1.1491	2.2797	85	0.3292
2121.6091	2.5185	1.1791	2.2783	84	0.3353
2121.7617	2.4809	1.2264	2.2733	87	0.3339
2121.9141	2.4223	1.2264	2.2667	87	0.3508
2122.0664	2.3965	1.1147	2.2705	84	0.3536
2122.2188	2.4033	1.0351	2.2672	84	0.3668
2122.3711	2.3879	1.0260	2.2623	84	0.3631
2122.5237	2.4235	1.0184	2.1916	84	0.3585
2122.6760	2.4451	1.0184	2.1213	83	0.4165
2122.8284	2.5062	1.0668	2.0840	87	0.4476
2122.9807	2.5074	1.0804	2.1454	88	0.4249
2123.1333	2.5002	1.0859	2.2275	92	0.3652
2123.2856	2.4891	1.0845	2.2753	87	0.3485
2123.4380	2.4981	1.0834	2.2837	88	0.3835
2123.5903	2.5048	1.0834	2.2853	88	0.3873
2123.7429	2.5018	1.1004	2.2946	91	0.3702
2123.8953	2.4871	1.0750	2.2898	92	0.3394
2124.0476	2.4708	1.0617	2.2885	94	0.3278
2124.2000	2.4707	1.0377	2.2850	95	0.3410
2124.3523	2.4772	1.0377	2.2916	99	0.3698
2124.5049	2.4326	1.0396	2.2937	102	0.3876
2124.6572	2.4249	1.0210	2.2964	106	0.3985
2124.8096	2.4028	1.0218	2.2963	106	0.3883
2124.9619	2.3901	0.9947	2.2981	103	0.3745
2125.1145	2.3579	0.9947	2.2984	101	0.3728
2125.2668	2.3290	1.0033	2.2786	97	0.3739
2125.4192	2.3001	0.9415	2.2678	98	0.3979
2125.5715	2.2954	0.9189	2.2463	101	0.4210
2125.7241	2.3210	0.9051	2.2622	106	0.4365
2125.8765	2.2831	0.8890	2.2682	111	0.4355
2126.0288	2.2759	0.8890	2.2662	110	0.4412
2126.1812	2.2385	0.8807	2.2530	114	0.4711
2126.3335	2.2338	0.8535	2.2495	119	0.4677
2126.4861	2.1937	0.8501	2.1914	125	0.4379
2126.6384	2.2432	0.8250	2.1522	127	0.4079
2126.7908	2.2289	0.8050	2.1140	124	0.4024
2126.9431	2.2060	0.8039	2.1263	126	0.4282
2127.0957	2.2129	0.8174	2.1059	124	0.4534
2127.2480	2.2233	0.7793	2.0720	122	0.4832
2127.4004	2.2658	0.8021	2.0691	116	0.4722
2127.5527	2.2968	0.8195	2.1005	111	0.4714
2127.7051	2.2658	0.8195	2.1078	109	0.4547
2127.8577	2.2704	0.8188	2.0623	104	0.4568
2128.0100	2.2738	0.8525	2.0488	98	0.4413
2128.1624	2.2975	0.8547	2.0539	94	0.4948
2128.3147	2.3229	0.8533	2.0773	91	0.5082
2128.4673	2.2933	0.8447	2.0465	88	0.5262
2128.6196	2.2336	0.8481	2.0297	89	0.4728
2128.7720	2.1673	0.8284	2.0263	91	0.4846
2128.9243	2.2576	0.8518	2.0445	94	0.4586
2129.0769	2.2637	0.8506	2.0486	96	0.4641
2129.2292	2.3005	0.8620	1.9824	96	0.4486
2129.3816	2.4036	0.8580	1.9137	96	0.4971
2129.5339	2.3606	0.8257	1.8597	95	0.5337
2129.6863	2.3751	0.8701	1.9113	93	0.5106
2129.8389	2.3458	0.8907	2.0539	93	0.4616
2129.9912	2.3259	0.8389	2.1822	91	0.4217
2130.1436	2.2891	0.8381	2.1806	92	0.4229
2130.2959	2.3064	0.8393	2.0981	90	0.4568
2130.4485	2.3399	0.8228	2.1007	92	0.4710
2130.6008	2.3309	0.8390	2.1407	90	0.4866
2130.7532	2.3150	0.8599	2.1426	93	0.4883
2130.9055	2.3326	0.8710	2.1424	91	0.4925
2131.0581	2.3357	0.8710	2.1528	91	0.4880
2131.2104	2.3362	0.8710	2.2115	89	0.4457
2131.3628	2.2572	0.8709	2.2406	91	0.4152
2131.5151	2.2831	0.8343	2.1999	93	0.4282
2131.6675	2.2869	0.8739	2.1391	93	0.4869
2131.8201	2.3025	0.8587	2.1329	92	0.5080
2131.9724	2.3173	0.8587	2.1507	91	0.4806
2132.1248	2.3117	0.8806	2.1566	90	0.4673
2132.2771	2.3143	0.8508	2.1222	91	0.4665
2132.4297	2.3255	0.8666	2.1780	96	0.4950
2132.5820	2.3356	0.9323	2.2423	94	0.4824
2132.7344	2.3079	0.9323	2.2500	99	0.4641
2132.8867	2.3162	0.8846	2.2090	96	0.4321
2133.0393	2.2853	0.8757	2.2130	98	0.4306
2133.1917	2.3150	0.8598	2.2116	94	0.4309
2133.3440	2.2818	0.8615	2.1969	93	0.4230
2133.4963	2.2655	0.8538	2.1269	90	0.4219
2133.6487	2.2747	0.8538	2.0945	86	0.4464
2133.8013	2.2889	0.8241	2.0758	87	0.4590
2133.9536	2.2979	0.8467	2.1218	89	0.4730
2134.1060	2.3081	0.8504	2.1338	93	0.4693
2134.2583	2.3344	0.8768	2.1524	94	0.4800
2134.4109	2.3423	0.8768	2.1789	91	0.4813
2134.5632	2.3695	0.8930	2.1741	89	0.4762
2134.7156	2.3938	0.9037	2.1646	87	0.4960
2134.8679	2.3967	0.9747	2.1909	90	0.4850
2135.0205	2.3938	0.9635	2.2389	89	0.4721
2135.1729	2.3716	0.9562	2.2655	89	0.4309
2135.3252	2.3842	0.9562	2.2730	92	0.4174
2135.4775	2.3755	0.9475	2.2657	94	0.3927
2135.6299	2.3720	0.9135	2.2640	96	0.4073
2135.7825	2.3849	0.9109	2.2648	94	0.4263
2135.9348	2.3876	0.9186	2.2531	93	0.4459
2136.0872	2.3802	0.9186	2.2442	96	0.4471
2136.2395	2.3491	0.9743	2.2323	95	0.4116
2136.3921	2.3979	0.9458	2.2389	95	0.4109
2136.5444	2.4198	0.9848	2.2479	93	0.3884
2136.6968	2.4456	1.0085	2.2050	91	0.3982
2136.8491	2.4527	1.0367	2.0969	90	0.4323
2137.0017	2.4476	1.0384	2.0387	85	0.4258
