~VERSION INFORMATION
 VERS.                 2.0:   CWLS LOG ASCII STANDARD - VERSION 2.0
 WRAP.                  NO:   SINGLE LINE PER DEPTH STEP
 CREA.                 5/20/2023 9:31:26 AM
#CREATED USING IP VERSION 4.5.2018.204 BY ADMIN ON 5/20/2023 9:31:26 AM
~WELL INFORMATION
#MNEM.UNIT       DATA                          DESCRIPTION MNEMONIC
#---------      ---------------------------   --------------------------
 STRT    .M         2078.0227                 : START DEPTH
 STOP    .M         2636.5688                 : STOP DEPTH
 STEP    .M         0.5000                    : STEP VALUE
 NULL    .      -999.0000                     : NULL VALUE
 DATE    .      5/20/2023                     : LAS file Creation Date
 WELL   .      ADWL-2    : Well Name
 COMP   .                : Company
 FLD    .                : Field
 UWI    .                : Unique Well Identifier (UWI)
 LOC    .                : Location
 RWS    .      -999      : Def_Rw
 WST    .      -999      : Def_Rwt
 PROV   .                : Province
 SRVC   .                : Contractor
 GDAT   .      WGS 84    : Geodatum
 LONG   .      0         : Longitude
 LATI   .      0         : Latitude
 COORDIN.                : Grid System
 XCOORD .                : X or East-West Coordinate
 YCOORD .                : Y or North-South Coordinate
~CURVE INFORMATION
#MNEM              UNIT       API CODE   Curve Type  Comments
#----------  --------------- ----------  ----------  -----------
 DEPTH      .M                         : Depth           
 VP         .KM/S                      : Vp    	     P-Wave Velocity
 VS         .KM/S                      : Vs 	     S-wave Velocity
 RHOB       .Gr/CC                     : RHOB        Density
 GR	    .GAPI		       : GR 	     Gamma Ray
 NPHI       .V/V                       : NPHI	     Neutron
 
~A  DEPTH         VP       VS    RHOB   GR      NPHI   
# ...
2375.9648	3.0208	1.5813	2.2042	72	0.2938
2376.1172	3.0135	1.5813	2.2047	75	0.3000
2376.2695	3.0183	1.5366	2.1948	72	0.2932
2376.4221	3.0116	1.5110	2.1805	69	0.2984
2376.5745	3.0630	1.5314	2.1710	65	0.2978
2376.7268	3.0506	1.4904	2.1695	59	0.2922
2376.8792	3.0464	1.4725	2.1781	60	0.2839
2377.0315	3.1241	1.4657	2.1813	60	0.2967
2377.1841	3.1441	1.4714	2.1809	61	0.3020
2377.3364	3.1309	1.4725	2.1852	62	0.3092
2377.4888	3.1018	1.4734	2.1914	64	0.3022
2377.6411	3.1014	1.4589	2.1955	65	0.3039
2377.7937	3.0973	1.4589	2.1995	65	0.2915
2377.9460	3.0970	1.4354	2.2011	62	0.3062
2378.0984	3.0977	1.4257	2.2008	61	0.2982
2378.2507	3.0969	1.4267	2.1987	59	0.3139
2378.4033	3.1186	1.3741	2.1968	59	0.2883
2378.5557	3.1094	1.3655	2.1902	58	0.3026
2378.7080	3.0988	1.3556	2.1881	61	0.2871
2378.8604	3.0929	1.3871	2.1881	63	0.2956
2379.0127	3.0759	1.3778	2.1842	67	0.2785
2379.1653	3.0785	1.3795	2.1838	66	0.2701
2379.3176	3.1092	1.3833	2.1820	64	0.2701
2379.4700	3.1067	1.3817	2.1891	62	0.2761
2379.6223	3.0907	1.3817	2.1940	62	0.2970
2379.7749	3.0854	1.3840	2.1979	63	0.2932
2379.9272	3.0662	1.3869	2.1983	65	0.3008
2380.0796	3.0461	1.3895	2.2003	66	0.3026
2380.2319	3.0483	1.3853	2.2058	63	0.3195
2380.3845	3.0452	1.3811	2.2102	64	0.3179
2380.5369	3.0134	1.3852	2.2030	63	0.3081
2380.6892	3.0105	1.3840	2.1909	66	0.2968
2380.8416	3.0180	1.4099	2.1788	64	0.3021
2380.9939	3.0432	1.4130	2.1753	65	0.3032
2381.1465	3.0404	1.4094	2.1816	63	0.3070
2381.2988	3.0472	1.4094	2.1921	63	0.3057
2381.4512	3.0431	1.4071	2.1870	63	0.2998
2381.6035	3.0459	1.4057	2.1807	62	0.2917
2381.7561	3.0822	1.4280	2.1865	62	0.2847
2381.9084	3.0996	1.4262	2.1897	62	0.2922
2382.0608	3.1026	1.4456	2.1854	63	0.2966
2382.2131	3.1143	1.4524	2.1775	64	0.2945
2382.3655	3.1159	1.4575	2.1697	63	0.2938
2382.5181	3.1136	1.4605	2.1735	62	0.2817
2382.6704	3.1055	1.4545	2.1756	62	0.2801
2382.8228	3.0748	1.4419	2.1836	65	0.2718
2382.9751	3.0516	1.4419	2.1818	69	0.2829
2383.1277	3.0326	1.4328	2.1785	68	0.2799
2383.2800	3.0262	1.4397	2.1652	68	0.2905
2383.4324	3.0263	1.4271	2.1567	68	0.2977
2383.5847	3.0438	1.4267	2.1555	70	0.3029
2383.7373	3.0413	1.4192	2.1680	69	0.3028
2383.8896	3.0761	1.4181	2.1782	68	0.2990
2384.0420	3.0907	1.4230	2.1770	67	0.2997
2384.1943	3.0948	1.4273	2.1795	68	0.3036
2384.3467	3.0688	1.4209	2.1704	67	0.2997
2384.4993	3.0695	1.4143	2.1700	66	0.3000
2384.6516	3.0531	1.4120	2.1648	65	0.3009
2384.8040	3.0775	1.4120	2.1675	65	0.2968
2384.9563	3.0796	1.4061	2.1649	63	0.2911
2385.1089	3.0351	1.3990	2.1691	62	0.2871
2385.2612	3.0404	1.3966	2.1687	58	0.2878
2385.4136	3.0145	1.3656	2.1685	59	0.2899
2385.5659	3.0060	1.3584	2.1651	59	0.2899
2385.7185	2.9905	1.3518	2.1582	61	0.2967
2385.8708	2.9857	1.3712	2.1548	60	0.3078
2386.0232	3.0162	1.3805	2.1492	61	0.3043
2386.1755	3.0180	1.3774	2.1519	60	0.3057
2386.3279	3.0281	1.3856	2.1558	61	0.3018
2386.4805	3.0233	1.3856	2.1631	60	0.3002
2386.6328	3.0596	1.3752	2.1648	59	0.3030
2386.7852	3.0522	1.3801	2.1675	58	0.2956
2386.9375	3.0218	1.3984	2.1692	59	0.3004
2387.0901	3.1628	1.4119	2.1812	62	0.2985
2387.2424	3.1726	1.4482	2.1864	62	0.3112
2387.3948	3.2439	1.4994	2.1874	63	0.3106
2387.5471	3.3210	1.5252	2.1907	60	0.3001
2387.6997	3.3421	1.5545	2.2005	59	0.2929
2387.8521	3.3663	1.5966	2.2132	61	0.2872
2388.0044	3.3536	1.6053	2.2269	60	0.2712
2388.1567	3.3051	1.5867	2.2468	58	0.2594
2388.3091	3.2815	1.5833	2.2515	55	0.2620
2388.4617	3.2436	1.5851	2.2469	54	0.2786
2388.6140	3.1677	1.5639	2.2364	55	0.2891
2388.7664	3.1289	1.4897	2.2346	55	0.2839
2388.9187	3.1234	1.4655	2.2379	57	0.2814
2389.0713	3.0659	1.4505	2.2271	56	0.2717
2389.2236	3.0556	1.4254	2.2136	59	0.2800
2389.3760	3.0371	1.4000	2.1987	61	0.2870
2389.5283	3.0300	1.4311	2.1891	64	0.2981
2389.6809	3.0320	1.4060	2.1815	65	0.2924
2389.8333	3.0361	1.3673	2.1789	68	0.2884
2389.9856	3.0199	1.3673	2.1699	70	0.2906
2390.1379	2.9809	1.3256	2.1643	69	0.2961
2390.2903	2.9776	1.3226	2.1505	65	0.3121
2390.4429	2.9821	1.3171	2.1431	64	0.3277
2390.5952	2.9733	1.3136	2.1395	65	0.3295
2390.7476	2.9593	1.2559	2.1441	64	0.3151
2390.8999	2.9326	1.2615	2.1520	63	0.3052
2391.0525	2.9141	1.2566	2.1542	63	0.3043
2391.2048	2.9325	1.2697	2.1537	65	0.3235
2391.3572	2.9601	1.3037	2.1558	63	0.3229
2391.5095	2.9797	1.3584	2.1547	63	0.3187
2391.6621	3.0071	1.3644	2.1597	61	0.3111
2391.8145	3.0320	1.3644	2.1629	61	0.2978
2391.9668	3.0586	1.3737	2.1711	62	0.3032
2392.1191	3.0268	1.3827	2.1780	64	0.2938
2392.2715	2.9918	1.3559	2.1822	66	0.2993
2392.4241	2.9727	1.3489	2.1841	63	0.2956
2392.5764	2.9533	1.3289	2.1889	66	0.2914
2392.7288	2.9425	1.3172	2.1899	63	0.2905
2392.8811	2.9569	1.3387	2.1793	62	0.2908
2393.0337	2.9369	1.3348	2.1722	61	0.2990
2393.1860	2.9961	1.3437	2.1668	64	0.3054
2393.3384	3.0089	1.3496	2.1727	64	0.3054
2393.4907	3.0066	1.3496	2.1726	62	0.3138
2393.6433	3.0138	1.3462	2.1934	58	0.3019
2393.7957	2.9776	1.3529	2.2072	59	0.2909
2393.9480	2.9732	1.3569	2.2257	63	0.2697
2394.1003	2.9739	1.3806	2.2053	64	0.2762
2394.2527	2.9755	1.3792	2.1903	64	0.2822
2394.4053	2.9753	1.3981	2.1792	62	0.2855
2394.5576	2.9805	1.4066	2.1758	64	0.2801
2394.7100	2.9817	1.4189	2.1732	66	0.2835
2394.8623	2.9841	1.4264	2.1676	64	0.2997
2395.0149	3.0082	1.4390	2.1636	62	0.3000
2395.1672	3.0138	1.4493	2.1653	59	0.3047
2395.3196	3.0319	1.4493	2.1682	62	0.3000
2395.4719	3.0367	1.4792	2.1728	62	0.3002
2395.6245	3.0368	1.4477	2.1788	64	0.2966
2395.7769	3.0499	1.4972	2.1835	64	0.2894
2395.9292	3.0667	1.4989	2.1828	65	0.2837
2396.0815	3.0810	1.5283	2.1842	63	0.2871
2396.2339	3.1003	1.5193	2.1755	61	0.2964
2396.3865	3.1921	1.5180	2.1760	64	0.3021
2396.5388	3.1395	1.5212	2.1770	65	0.2950
2396.6912	3.1150	1.5061	2.1771	67	0.2796
2396.8435	3.1255	1.4021	2.1758	65	0.2908
2396.9961	3.1275	1.4533	2.1783	66	0.3042
2397.1484	3.1124	1.4533	2.1830	67	0.3029
2397.3008	3.0977	1.5172	2.1835	69	0.2958
2397.4531	3.0884	1.5094	2.1801	67	0.2896
2397.6057	3.1018	1.4949	2.1765	65	0.3012
2397.7581	3.1097	1.4963	2.1740	64	0.3052
2397.9104	3.1461	1.5021	2.1669	63	0.3079
2398.0627	3.1718	1.4996	2.1747	64	0.2996
2398.2151	3.1833	1.5521	2.1821	65	0.2976
2398.3677	3.2074	1.5184	2.2012	66	0.2941
2398.5200	3.2150	1.5177	2.2123	68	0.2990
2398.6724	3.2728	1.5125	2.2241	65	0.2853
2398.8247	3.2505	1.5125	2.2282	66	0.2768
2398.9773	3.1837	1.4866	2.2281	61	0.2739
2399.1296	3.1008	1.4741	2.2285	64	0.2836
2399.2820	3.0955	1.4722	2.2199	61	0.2948
2399.4343	3.0872	1.4981	2.2411	68	0.3062
2399.5869	3.0906	1.5056	2.2408	71	0.3174
2399.7393	3.1339	1.5146	2.2439	76	0.3024
2399.8916	3.1532	1.5179	2.2410	76	0.2866
2400.0439	3.2235	1.5920	2.2590	75	0.2706
2400.1963	3.2359	1.5264	2.2558	74	0.2801
2400.3489	3.2247	1.5144	2.2389	75	0.2876
2400.5012	3.2256	1.4933	2.2343	72	0.2858
2400.6536	3.2224	1.4967	2.2505	69	0.2768
2400.8059	3.1620	1.4967	2.2609	68	0.2626
2400.9585	3.1651	1.5853	2.2675	71	0.2697
2401.1108	3.1851	1.6068	2.2768	77	0.2906
2401.2632	3.2435	1.6070	2.2740	78	0.2938
2401.4155	3.3431	1.5921	2.2652	76	0.3008
2401.5681	3.3010	1.5532	2.2404	73	0.3010
2401.7205	3.2745	1.5702	2.2297	72	0.3036
2401.8728	3.2467	1.5559	2.2347	71	0.2911
2402.0251	3.2278	1.5339	2.2553	72	0.2809
2402.1775	3.1862	1.5406	2.2766	74	0.2868
2402.3301	3.1710	1.5318	2.2674	77	0.2954
2402.4824	3.1708	1.5264	2.2723	78	0.3019
2402.6348	3.1841	1.5347	2.2730	75	0.3044
2402.7871	3.2377	1.5347	2.2799	74	0.2911
2402.9397	3.2333	1.5694	2.2747	73	0.2746
2403.0920	3.2528	1.5799	2.2662	73	0.2674
2403.2444	3.2574	1.5841	2.2556	75	0.2699
2403.3967	3.2703	1.5860	2.2533	74	0.2759
2403.5493	3.2678	1.6392	2.2606	76	0.2888
2403.7017	3.3090	1.6585	2.2493	73	0.2927
2403.8540	3.2652	1.6594	2.2328	72	0.2962
2404.0063	3.4003	1.6579	2.2191	67	0.2876
2404.1587	3.3405	1.6525	2.2384	68	0.2735
2404.3113	3.3824	1.5925	2.2608	66	0.2577
2404.4636	3.3025	1.4726	2.2669	64	0.2425
2404.6160	3.1994	1.4726	2.2670	60	0.2451
2404.7683	3.1894	1.4382	2.2625	62	0.2503
2404.9209	3.0775	1.4370	2.2718	65	0.2675
2405.0732	3.0487	1.4438	2.2959	75	0.2887
2405.2256	3.0967	1.5017	2.3257	84	0.3067
2405.3779	3.1051	1.5133	2.3436	92	0.3044
2405.5305	3.1152	1.5150	2.3459	91	0.3079
2405.6829	3.1272	1.5172	2.3453	90	0.3187
