~VERSION INFORMATION
 VERS.                 2.0:   CWLS LOG ASCII STANDARD - VERSION 2.0
 WRAP.                  NO:   SINGLE LINE PER DEPTH STEP
 CREA.                 5/20/2023 9:31:26 AM
#CREATED USING IP VERSION 4.5.2018.204 BY ADMIN ON 5/20/2023 9:31:26 AM
~WELL INFORMATION
#MNEM.UNIT       DATA                          DESCRIPTION MNEMONIC
#---------      ---------------------------   --------------------------
 STRT    .M         2078.0227                 : START DEPTH
 STOP    .M         2636.5688                 : STOP DEPTH
 STEP    .M         0.5000                    : STEP VALUE
 NULL    .      -999.0000                     : NULL VALUE
 DATE    .      5/20/2023                     : LAS file Creation Date
 WELL   .      ADWL-2    : Well Name
 COMP   .                : Company
 FLD    .                : Field
 UWI    .                : Unique Well Identifier (UWI)
 LOC    .                : Location
 RWS    .      -999      : Def_Rw
 WST    .      -999      : Def_Rwt
 PROV   .                : Province
 SRVC   .                : Contractor
 GDAT   .      WGS 84    : Geodatum
 LONG   .      0         : Longitude
 LATI   .      0         : Latitude
 COORDIN.                : Grid System
 XCOORD .                : X or East-West Coordinate
 YCOORD .                : Y or North-South Coordinate
~CURVE INFORMATION
#MNEM              UNIT       API CODE   Curve Type  Comments
#----------  --------------- ----------  ----------  -----------
 DEPTH      .M                         : Depth           
 VP         .KM/S                      : Vp    	     P-Wave Velocity
 VS         .KM/S                      : Vs 	     S-wave Velocity
 RHOB       .Gr/CC                     : RHOB        Density
 GR	    .GAPI		       : GR 	     Gamma Ray
 NPHI       .V/V                       : NPHI	     Neutron
 
~A  DEPTH         VP       VS    RHOB   GR      NPHI   
# ...
2584.9053	3.2460	1.4401	2.4432	70	0.2528
2585.0576	3.2555	1.4690	2.4393	70	0.2622
2585.2100	3.2122	1.4239	2.4707	72	0.2268
2585.3623	3.1996	1.4122	2.5049	72	0.1932
2585.5149	3.2014	1.3845	2.5228	71	0.2147
2585.6672	3.1796	1.3764	2.4956	71	0.2773
2585.8196	3.0710	1.2726	2.4673	73	0.3115
2585.9719	3.0770	1.4275	2.4628	73	0.3062
2586.1245	3.1276	1.4570	2.4615	70	0.2835
2586.2769	3.1329	1.4607	2.4549	68	0.2942
2586.4292	3.1232	1.4049	2.4541	70	0.2947
2586.5815	3.1428	1.3614	2.4658	73	0.2879
2586.7339	3.1913	1.5433	2.4822	73	0.2661
2586.8865	3.1970	1.5819	2.4872	70	0.2575
2587.0388	3.2018	1.5521	2.4908	67	0.2634
2587.1912	3.1697	1.5210	2.4801	66	0.2678
2587.3435	3.0955	1.4485	2.4740	70	0.2682
2587.4961	3.0237	1.4017	2.4804	69	0.2653
2587.6484	3.1530	1.3889	2.4869	70	0.2806
2587.8008	3.0864	1.4298	2.4809	70	0.3033
2587.9531	3.0031	1.4534	2.4717	73	0.3084
2588.1057	3.0210	1.5182	2.4693	74	0.3086
2588.2581	3.0259	1.4253	2.4739	80	0.2880
2588.4104	3.0551	1.4534	2.4754	82	0.3207
2588.5627	3.1436	1.4862	2.4657	86	0.2786
2588.7151	3.2397	1.5262	2.4388	85	0.2326
2588.8677	3.4030	1.6513	2.4163	79	0.1523
2589.0200	3.5489	1.7816	2.4300	68	0.1434
2589.1724	3.5569	1.7759	2.4489	58	0.1402
2589.3247	3.3881	1.7636	2.4246	56	0.1570
2589.4773	3.3251	1.6746	2.3369	56	0.1954
2589.6296	3.2804	1.5966	2.2637	57	0.2329
2589.7820	3.4015	1.6357	2.2181	58	0.2544
2589.9343	3.3378	1.6545	2.2368	57	0.2438
2590.0869	3.3424	1.5546	2.2872	58	0.2196
2590.2393	3.2970	1.5328	2.3221	58	0.2286
2590.3916	3.1691	1.5024	2.3384	63	0.2556
2590.5439	3.1512	1.4897	2.3618	69	0.3054
2590.6963	3.1330	1.4500	2.4321	75	0.3084
2590.8489	3.1164	1.3955	2.4888	80	0.3027
2591.0012	3.1346	1.4249	2.4924	78	0.2756
2591.1536	3.1680	1.4995	2.4858	76	0.2697
2591.3059	3.1489	1.4643	2.4897	75	0.2656
2591.4585	3.1800	1.4611	2.4944	76	0.2737
2591.6108	3.2480	1.4765	2.5074	73	0.2683
2591.7632	3.4318	1.5142	2.5206	70	0.2726
2591.9155	3.4513	1.6156	2.5284	70	0.2714
2592.0681	3.4164	1.5968	2.5364	72	0.2696
2592.2205	3.3607	1.5982	2.5185	72	0.2624
2592.3728	3.3465	1.5933	2.5101	69	0.2776
2592.5251	3.2567	1.5278	2.5064	68	0.2681
2592.6775	3.2037	1.5183	2.5095	69	0.2610
2592.8301	3.1796	1.5119	2.5118	71	0.2489
2592.9824	3.1944	1.3938	2.4979	72	0.2627
2593.1348	3.2586	1.4938	2.4897	72	0.2703
2593.2871	3.2084	1.4880	2.4930	74	0.2780
2593.4397	3.2306	1.5073	2.5024	76	0.2757
2593.5920	3.1904	1.4932	2.5144	76	0.2740
2593.7444	3.2511	1.4822	2.5135	76	0.2662
2593.8967	3.2776	1.4626	2.5104	74	0.2755
2594.0493	3.2214	1.5356	2.5111	74	0.2822
2594.2017	3.1574	1.5145	2.5068	74	0.2807
2594.3540	3.1766	1.4744	2.5086	77	0.2694
2594.5063	3.1198	1.3559	2.5073	76	0.2700
2594.6587	3.0983	1.3841	2.5080	77	0.2839
2594.8113	3.1005	1.3768	2.5016	74	0.3063
2594.9636	3.0388	1.3381	2.4956	74	0.3132
2595.1160	3.0144	1.3622	2.4887	72	0.3111
2595.2683	2.9758	1.4433	2.4815	72	0.3130
2595.4209	3.0552	1.4662	2.4758	72	0.3157
2595.5732	3.2113	1.5459	2.4686	72	0.3246
2595.7256	3.2885	1.5204	2.4704	73	0.3321
2595.8779	3.6021	1.4648	2.4806	73	0.3429
2596.0305	3.8818	2.1269	2.5031	73	0.3247
2596.1829	4.1513	2.1917	2.5389	71	0.2332
2596.3352	4.2528	2.2716	2.5655	70	0.1347
2596.4875	4.4310	2.1147	2.5771	72	0.0678
2596.6399	3.9880	2.0387	2.5609	72	0.0706
2596.7925	3.6858	1.7864	2.5478	75	0.0845
2596.9448	3.4049	1.5949	2.5368	72	0.1440
2597.0972	3.2277	1.5229	2.5250	74	0.2185
2597.2495	3.2236	1.4851	2.5104	74	0.2768
2597.4021	3.1731	1.4616	2.5172	75	0.2893
2597.5544	3.1790	1.4665	2.5218	76	0.2800
2597.7068	3.1372	1.4779	2.5213	76	0.2875
2597.8591	3.1628	1.4924	2.4967	77	0.2941
2598.0117	3.2709	1.4959	2.4954	76	0.3080
2598.1641	3.5793	1.4978	2.5069	76	0.3180
2598.3164	3.6811	1.6044	2.5112	75	0.3217
2598.4688	3.7688	1.7657	2.5271	69	0.2649
2598.6211	3.6991	1.7104	2.5405	64	0.1811
2598.7737	3.7501	1.8003	2.5654	59	0.1245
2598.9260	3.5744	1.6593	2.5668	59	0.1530
2599.0784	3.5121	1.6394	2.5415	59	0.2136
2599.2307	3.5795	1.5960	2.5166	59	0.2501
2599.3833	3.5019	1.6218	2.5193	59	0.2529
2599.5356	3.5219	1.6264	2.5408	59	0.2471
2599.6880	3.4949	1.5943	2.5611	59	0.2339
2599.8403	3.6065	1.6252	2.5666	59	0.2238
2599.9929	3.5026	1.6725	2.5576	59	0.2230
2600.1453	3.4399	1.6673	2.5407	59	0.2378
2600.2976	3.4185	1.6075	2.5325	59	0.2540
2600.4500	3.4199	1.6291	2.5335	59	0.2562
2600.6023	3.4649	1.6450	2.5372	59	0.2499
2600.7549	3.4778	1.6118	2.5360	59	0.2413
2600.9072	3.4950	1.6443	2.5423	59	0.2431
2601.0596	3.5075	1.5944	2.5532	59	0.2410
2601.2119	3.5090	1.6522	2.5493	59	0.2306
2601.3645	3.4818	1.6618	2.5421	59	0.2270
2601.5168	3.5930	1.7444	2.5338	59	0.2326
2601.6692	3.7693	1.7912	2.5392	59	0.2418
2601.8215	3.8391	1.8246	2.5444	59	0.2420
2601.9741	3.9131	1.7998	2.5495	59	0.2334
2602.1265	3.7596	1.6965	2.5732	59	0.2342
2602.2788	3.7896	1.6298	2.6031	59	0.2188
2602.4312	3.5886	1.5063	2.5986	59	0.1685
2602.5835	3.5093	1.5770	2.5576	59	0.1160
2602.7361	3.4676	1.5440	2.5169	59	0.1291
2602.8884	3.5237	1.5729	2.5084	59	0.1943
2603.0408	3.5997	1.7241	2.5243	59	0.2480
2603.1931	3.7739	1.9250	2.5351	59	0.2459
2603.3457	3.8424	1.9250	2.5511	59	0.2120
2603.4980	3.9278	1.9355	2.5625	59	0.1807
2603.6504	3.9513	1.9377	2.5775	59	0.1294
2603.8027	3.9646	1.9250	2.5894	59	0.1142
2603.9551	3.9172	1.9042	2.5768	59	0.1169
2604.1077	3.7765	1.8136	2.5674	59	0.1500
2604.2600	3.7413	1.8136	2.5476	59	0.1711
2604.4124	3.7099	1.8057	2.5415	59	0.1796
2604.5647	3.7135	1.8063	2.5422	59	0.1895
2604.7173	3.7247	1.8050	2.5442	59	0.1982
2604.8696	3.7469	1.7889	2.5506	59	0.2066
2605.0220	3.8139	1.7889	2.5597	59	0.2072
2605.1743	3.8371	1.8855	2.5535	59	0.2093
2605.3269	3.8161	1.9022	2.5433	59	0.2108
2605.4792	3.9236	1.9312	2.5363	59	0.2116
2605.6316	3.9216	1.9787	2.5411	59	0.2079
2605.7839	3.8645	1.9787	2.5466	59	0.2104
2605.9363	4.0162	1.9927	2.5494	59	0.2163
2606.0889	3.9364	1.9807	2.5454	59	0.2166
2606.2412	3.8338	2.0046	2.5393	59	0.2138
2606.3936	3.8019	1.9390	2.5282	59	0.2110
2606.5459	3.7857	1.9390	2.5226	59	0.2103
2606.6985	3.7480	1.8569	2.5055	59	0.2120
2606.8508	3.7044	1.9568	2.4958	59	0.2107
2607.0032	3.8714	2.0914	2.4887	59	0.2106
2607.1555	3.9950	2.1978	2.4951	59	0.2108
2607.3081	4.0293	2.1929	2.5058	59	0.2087
2607.4604	4.1630	2.1237	2.5074	59	0.2059
2607.6128	4.2342	2.1582	2.4941	59	0.2169
2607.7651	4.2949	2.1383	2.4725	59	0.2385
2607.9175	4.2777	2.1013	2.4599	59	0.2231
2608.0701	4.2104	2.0762	2.4754	59	0.1985
2608.2224	3.9802	2.0762	2.5196	59	0.1652
2608.3748	3.9878	2.0825	2.4828	59	0.1255
2608.5271	3.9173	2.0667	2.4447	59	0.1009
2608.6797	3.8873	2.0029	2.4381	59	0.0873
2608.8320	3.9177	1.9831	2.5162	59	0.0873
2608.9844	3.8163	1.9701	2.5348	59	0.0873
2609.1367	3.7638	1.9605	2.4813	59	0.0873
2609.2893	3.7525	1.9078	2.4661	59	0.0873
2609.4417	3.7393	1.9126	2.4876	59	0.0873
2609.5940	3.7891	1.9122	2.5155	59	0.0873
2609.7463	3.7960	1.8935	2.5071	59	0.0873
2609.8987	3.8582	1.8926	2.4980	59	0.0873
2610.0513	4.1029	1.8786	2.5016	59	0.0873
2610.2036	3.9825	1.8617	2.4963	59	0.0873
2610.3560	4.0948	1.8580	2.4903	59	0.0873
2610.5083	4.0524	1.8601	2.4921	59	0.0873
2610.6609	3.8593	1.8643	2.4867	59	0.0873
2610.8132	3.9668	1.8703	2.4809	59	0.0873
2610.9656	3.9680	1.9151	2.4796	59	0.0873
2611.1179	3.9025	1.9282	2.4840	59	0.0873
2611.2705	3.9842	1.9556	2.4903	59	0.0873
2611.4229	3.9638	1.9646	2.4871	59	0.0873
2611.5752	3.9960	1.9697	2.4825	59	0.0873
2611.7275	3.9639	1.9960	2.4837	59	0.0873
2611.8799	3.9040	1.9858	2.4833	59	0.0873
2612.0325	3.9539	1.9625	2.4818	59	0.0873
2612.1848	4.0453	1.9571	2.4765	59	0.0873
2612.3372	4.0657	1.9843	2.4716	59	0.0873
2612.4895	4.0295	2.0554	2.4624	59	0.0873
2612.6421	4.0275	2.0705	2.4534	59	0.0873
2612.7944	4.0908	2.0684	2.4477	59	0.0873
2612.9468	4.0884	2.0781	2.4474	59	0.0873
2613.0991	4.0759	2.0896	2.4384	59	0.0873
2613.2517	4.0704	2.0956	2.4383	59	0.0873
2613.4041	4.0687	2.0666	2.4280	59	0.0873
2613.5564	4.0669	2.0820	2.4241	59	0.0873
2613.7087	4.0012	2.0886	2.4223	59	0.0873
2613.8611	4.1150	2.0986	2.4147	59	0.0873
2614.0137	4.1030	2.0997	2.4070	59	0.0873
2614.1660	4.1106	2.0758	2.3951	59	0.0873
2614.3184	4.1751	2.0019	2.3971	59	0.0873
2614.4707	4.1734	1.9465	2.3972	59	0.0873
2614.6233	4.1309	1.9455	2.3972	59	0.0873
