~VERSION INFORMATION
 VERS.                 2.0:   CWLS LOG ASCII STANDARD - VERSION 2.0
 WRAP.                  NO:   SINGLE LINE PER DEPTH STEP
 CREA.                 5/20/2023 9:31:26 AM
#CREATED USING IP VERSION 4.5.2018.204 BY ADMIN ON 5/20/2023 9:31:26 AM
~WELL INFORMATION
#MNEM.UNIT       DATA                          DESCRIPTION MNEMONIC
#---------      ---------------------------   --------------------------
 STRT    .M         2078.0227                 : START DEPTH
 STOP    .M         2636.5688                 : STOP DEPTH
 STEP    .M         0.5000                    : STEP VALUE
 NULL    .      -999.0000                     : NULL VALUE
 DATE    .      5/20/2023                     : LAS file Creation Date
 WELL   .      ADWL-2    : Well Name
 COMP   .                : Company
 FLD    .                : Field
 UWI    .                : Unique Well Identifier (UWI)
 LOC    .                : Location
 RWS    .      -999      : Def_Rw
 WST    .      -999      : Def_Rwt
 PROV   .                : Province
 SRVC   .                : Contractor
 GDAT   .      WGS 84    : Geodatum
 LONG   .      0         : Longitude
 LATI   .      0         : Latitude
 COORDIN.                : Grid System
 XCOORD .                : X or East-West Coordinate
 YCOORD .                : Y or North-South Coordinate
~CURVE INFORMATION
#MNEM              UNIT       API CODE   Curve Type  Comments
#----------  --------------- ----------  ----------  -----------
 DEPTH      .M                         : Depth           
 VP         .KM/S                      : Vp    	     P-Wave Velocity
 VS         .KM/S                      : Vs 	     S-wave Velocity
 RHOB       .Gr/CC                     : RHOB        Density
 GR	    .GAPI		       : GR 	     Gamma Ray
 NPHI       .V/V                       : NPHI	     Neutron
 
~A  DEPTH         VP       VS    RHOB   GR      NPHI   
# ...
2614.7756	4.1159	1.9237	2.3972	59	0.0873
2614.9280	3.9345	1.8774	2.3972	59	0.0873
2615.0803	3.9253	1.8862	2.3972	59	0.0873
2615.2329	3.7290	1.8665	2.3972	59	0.0873
2615.3853	3.7126	1.8689	2.3972	59	0.0873
2615.5376	3.7324	1.8090	2.3972	59	0.0873
2615.6899	3.7138	1.7774	2.3972	59	0.0873
2615.8423	3.7595	1.7729	2.3972	59	0.0873
2615.9949	3.8152	1.7659	2.3972	59	0.0873
2616.1472	3.8307	1.7663	2.3972	59	0.0873
2616.2996	3.8868	1.7849	2.3972	59	0.0873
2616.4519	3.8800	1.8270	2.3972	59	0.0873
2616.6045	3.8608	1.8398	2.3972	59	0.0873
2616.7568	3.8330	1.8426	2.3972	59	0.0873
2616.9092	3.8844	1.8208	2.3972	59	0.0873
2617.0615	3.9658	1.8260	2.3972	59	0.0873
2617.2141	4.0002	1.9029	2.3972	59	0.0873
2617.3665	3.9983	1.9007	2.3972	59	0.0873
2617.5188	3.9618	1.9489	2.3972	59	0.0873
2617.6711	3.9474	1.9368	2.3972	59	0.0873
2617.8235	3.9225	1.9376	2.3972	59	0.0873
2617.9761	3.8614	1.8888	2.3972	59	0.0873
2618.1284	3.8061	1.8190	2.3972	59	0.0873
2618.2808	3.7938	1.8091	2.3972	59	0.0873
2618.4331	3.7432	1.8350	2.3972	59	0.0873
2618.5857	3.7701	1.8221	2.3972	59	0.0873
2618.7380	3.7998	1.9009	2.3972	59	0.0873
2618.8904	3.8745	1.8991	2.3972	59	0.0873
2619.0427	3.8997	1.8895	2.3972	59	0.0873
2619.1953	3.8899	1.8865	2.3972	59	0.0873
2619.3477	3.8450	1.8935	2.3972	59	0.0873
2619.5000	3.8145	1.9348	2.3972	59	0.0873
2619.6523	3.8433	1.8848	2.3972	59	0.0873
2619.8047	3.8158	1.8876	2.3972	59	0.0873
2619.9573	3.7863	1.8736	2.3972	59	0.0873
2620.1096	3.7763	1.8960	2.3972	59	0.0873
2620.2620	3.8073	1.8845	2.3972	59	0.0873
2620.4143	3.7299	1.8994	2.3972	59	0.0873
2620.5669	3.6963	1.8862	2.3972	59	0.0873
2620.7192	3.6487	1.8677	2.3972	59	0.0873
2620.8716	3.6057	1.8884	2.3972	59	0.0873
2621.0239	3.9560	1.8530	2.3972	59	0.0873
2621.1765	3.8475	1.8815	2.3972	59	0.0873
2621.3289	3.8537	1.8723	2.3972	59	0.0873
2621.4812	3.9536	1.8750	2.3972	59	0.0873
2621.6335	3.9482	1.8784	2.3972	59	0.0873
2621.7859	3.8999	1.8692	2.3972	59	0.0873
2621.9385	3.9513	1.8669	2.3972	59	0.0873
2622.0908	3.9140	1.8657	2.3972	59	0.0873
2622.2432	3.9019	1.8414	2.3972	59	0.0873
2622.3955	3.9213	1.8650	2.3972	59	0.0873
2622.5481	3.9033	1.8348	2.3972	59	0.0873
2622.7004	3.9014	1.8689	2.3972	59	0.0873
2622.8528	3.9061	1.8379	2.3972	59	0.0873
2623.0051	3.9330	1.8251	2.3972	59	0.0873
2623.1577	3.9317	1.8281	2.3972	59	0.0873
2623.3101	3.9310	1.8209	2.3972	59	0.0873
2623.4624	3.9503	1.8109	2.3972	59	0.0873
2623.6147	3.9469	1.7954	2.3972	59	0.0873
2623.7671	3.9374	1.7954	2.3972	59	0.0873
2623.9197	3.9329	1.7954	2.3972	59	0.0873
2624.0720	3.9319	1.7954	2.3972	59	0.0873
2624.2244	3.9289	1.7954	2.3972	59	0.0873
2624.3767	3.9322	1.7954	2.3972	59	0.0873
2624.5293	3.9382	1.7954	2.3972	59	0.0873
2624.6816	3.9392	1.7954	2.3972	59	0.0873
2624.8340	3.9437	1.7954	2.3972	59	0.0873
2624.9863	3.9477	1.7954	2.3972	59	0.0873
2625.1389	3.9398	1.7954	2.3972	59	0.0873
2625.2913	3.9500	1.7954	2.3972	59	0.0873
2625.4436	3.9475	1.7954	2.3972	59	0.0873
2625.5959	3.9520	1.7954	2.3972	59	0.0873
2625.7483	3.9459	1.7954	2.3972	59	0.0873
2625.9009	3.9734	1.7954	2.3972	59	0.0873
2626.0532	3.9599	1.7954	2.3972	59	0.0873
2626.2056	3.9829	1.7954	2.3972	59	0.0873
2626.3579	3.9815	1.7954	2.3972	59	0.0873
2626.5105	3.9833	1.7954	2.3972	59	0.0873
2626.6628	3.9851	1.7954	2.3972	59	0.0873
2626.8152	3.9863	1.7954	2.3972	59	0.0873
2626.9675	3.9851	1.7954	2.3972	59	0.0873
2627.1201	3.9764	1.7954	2.3972	59	0.0873
2627.2725	3.9731	1.7954	2.3972	59	0.0873
2627.4248	3.9748	1.7954	2.3972	59	0.0873
2627.5771	3.9748	1.7954	2.3972	59	0.0873
2627.7295	3.9748	1.7954	2.3972	59	0.0873
2627.8821	3.9748	1.7954	2.3972	59	0.0873
2628.0344	3.9748	1.7954	2.3972	59	0.0873
2628.1868	3.9748	1.7954	2.3972	59	0.0873
2628.3391	3.9748	1.7954	2.3972	59	0.0873
2628.4917	3.9748	1.7954	2.3972	59	0.0873
2628.6440	3.9748	1.7954	2.3972	59	0.0873
2628.7964	3.9748	1.7954	2.3972	59	0.0873
2628.9487	3.9748	1.7954	2.3972	59	0.0873
2629.1013	3.9748	1.7954	2.3972	59	0.0873
2629.2537	3.9748	1.7954	2.3972	59	0.0873
2629.4060	3.9748	1.7954	2.3972	59	0.0873
2629.5583	3.9748	1.7954	2.3972	59	0.0873
2629.7107	3.9748	1.7954	2.3972	59	0.0873
2629.8633	3.9748	1.7954	2.3972	59	0.0873
2630.0156	3.9748	1.7954	2.3972	59	0.0873
2630.1680	3.9748	1.7954	2.3972	59	0.0873
2630.3203	3.9748	1.7954	2.3972	59	0.0873
2630.4729	3.9748	1.7954	2.3972	59	0.0873
2630.6252	3.9748	1.7954	2.3972	59	0.0873
2630.7776	3.9748	1.7954	2.3972	59	0.0873
2630.9299	3.9748	1.7954	2.3972	59	0.0873
2631.0825	3.9748	1.7954	2.3972	59	0.0873
2631.2349	3.9748	1.7954	2.3972	59	0.0873
2631.3872	3.9748	1.7954	2.3972	59	0.0873
2631.5396	3.9748	1.7954	2.3972	59	0.0873
2631.6919	3.9748	1.7954	2.3972	59	0.0873
2631.8445	3.9748	1.7954	2.3972	59	0.0873
2631.9968	3.9748	1.7954	2.3972	59	0.0873
2632.1492	3.9748	1.7954	2.3972	59	0.0873
2632.3015	3.9748	1.7954	2.3972	59	0.0873
2632.4541	3.9748	1.7954	2.3972	59	0.0873
2632.6064	3.9748	1.7954	2.3972	59	0.0873
2632.7588	3.9748	1.7954	2.3972	59	0.0873
2632.9111	3.9748	1.7954	2.3972	59	0.0873
2633.0637	3.9748	1.7954	2.3972	59	0.0873
2633.2161	3.9748	1.7954	2.3972	59	0.0873
2633.3684	3.9748	1.7954	2.3972	59	0.0873
2633.5208	3.9748	1.7954	2.3972	59	0.0873
2633.6731	3.9748	1.7954	2.3972	59	0.0873
2633.8257	3.9748	1.7954	2.3972	59	0.0873
2633.9780	3.9748	1.7954	2.3972	59	0.0873
2634.1304	3.9748	1.7954	2.3972	59	0.0873
2634.2827	3.9748	1.7954	2.3972	59	0.0873
2634.4353	3.9748	1.7954	2.3972	59	0.0873
2634.5876	3.9748	1.7954	2.3972	59	0.0873
2634.7400	3.9748	1.7954	2.3972	59	0.0873
2634.8923	3.9748	1.7954	2.3972	59	0.0873
2635.0449	3.9748	1.7954	2.3972	59	0.0873
2635.1973	3.9748	1.7954	2.3972	59	0.0873
2635.3496	3.9748	1.7954	2.3972	59	0.0873
2635.5020	3.9505	1.7954	2.3972	59	0.0873
2635.6543	3.9108	1.7954	2.3972	59	0.0873
2635.8069	3.9007	1.7954	2.3972	59	0.0873
2635.9592	3.8841	1.7954	2.3972	59	0.0873
2636.1116	3.9497	1.7954	2.3972	59	0.0873
2636.2639	3.9748	1.7954	2.3972	59	0.0873
2636.4165	3.9748	1.7954	2.3972	59	0.0873
2636.5688	3.9748	1.7954	2.3972	59	0.0873
