~VERSION INFORMATION
 VERS.                 2.0:   CWLS LOG ASCII STANDARD - VERSION 2.0
 WRAP.                  NO:   SINGLE LINE PER DEPTH STEP
 CREA.                 5/20/2023 9:31:26 AM
#CREATED USING IP VERSION 4.5.2018.204 BY ADMIN ON 5/20/2023 9:31:26 AM
~WELL INFORMATION
#MNEM.UNIT       DATA                          DESCRIPTION MNEMONIC
#---------      ---------------------------   --------------------------
 STRT    .M         2078.0227                 : START DEPTH
 STOP    .M         2636.5688                 : STOP DEPTH
 STEP    .M         0.5000                    : STEP VALUE
 NULL    .      -999.0000                     : NULL VALUE
 DATE    .      5/20/2023                     : LAS file Creation Date
 WELL   .      ADWL-2    : Well Name
 COMP   .                : Company
 FLD    .                : Field
 UWI    .                : Unique Well Identifier (UWI)
 LOC    .                : Location
 RWS    .      -999      : Def_Rw
 WST    .      -999      : Def_Rwt
 PROV   .                : Province
 SRVC   .                : Contractor
 GDAT   .      WGS 84    : Geodatum
 LONG   .      0         : Longitude
 LATI   .      0         : Latitude
 COORDIN.                : Grid System
 XCOORD .                : X or East-West Coordinate
 YCOORD .                : Y or North-South Coordinate
~CURVE INFORMATION
#MNEM              UNIT       API CODE   Curve Type  Comments
#----------  --------------- ----------  ----------  -----------
 DEPTH      .M                         : Depth           
 VP         .KM/S                      : Vp    	     P-Wave Velocity
 VS         .KM/S                      : Vs 	     S-wave Velocity
 RHOB       .Gr/CC                     : RHOB        Density
 GR	    .GAPI		       : GR 	     Gamma Ray
 NPHI       .V/V                       : NPHI	     Neutron
 
~A  DEPTH         VP       VS    RHOB   GR      NPHI   
# ...
2435.7056	3.2331	1.5863	2.2843	71	0.2583
2435.8579	3.2205	1.5865	2.2528	66	0.2669
2436.0105	3.2334	1.5889	2.2311	62	0.2728
2436.1628	3.2058	1.4864	2.2161	60	0.2712
2436.3152	3.1578	1.4864	2.2121	61	0.2796
2436.4675	3.1058	1.4045	2.2121	60	0.2767
2436.6201	3.0506	1.3685	2.2122	60	0.2796
2436.7725	3.0026	1.3651	2.2165	58	0.2761
2436.9248	2.9554	1.3600	2.2183	63	0.2883
2437.0771	2.9708	1.3985	2.2536	71	0.3133
2437.2295	3.0696	1.4979	2.3024	85	0.3392
2437.3821	3.2415	1.5110	2.3580	95	0.3577
2437.5344	3.2806	1.5932	2.3470	94	0.3477
2437.6868	3.6686	1.7677	2.3081	85	0.3322
2437.8391	3.6747	1.7687	2.2822	76	0.2745
2437.9917	3.6754	1.7665	2.3108	69	0.2082
2438.1440	3.5161	1.7665	2.3821	66	0.1429
2438.2964	3.3111	1.7605	2.4296	63	0.1459
2438.4487	3.1907	1.6601	2.3847	64	0.1913
2438.6013	3.1821	1.5960	2.3287	68	0.2458
2438.7537	3.1714	1.5083	2.2978	73	0.2784
2438.9060	3.1656	1.5453	2.3017	75	0.2834
2439.0583	3.1666	1.5356	2.2929	72	0.2757
2439.2107	3.1767	1.5816	2.2714	70	0.2707
2439.3633	3.1925	1.5820	2.2552	68	0.2709
2439.5156	3.1949	1.5950	2.2526	72	0.2806
2439.6680	3.2157	1.5932	2.2667	75	0.2946
2439.8203	3.2645	1.5932	2.2633	75	0.2917
2439.9729	3.2921	1.6666	2.2584	72	0.2757
2440.1252	3.2226	1.5807	2.2595	69	0.2809
2440.2776	3.2433	1.5999	2.2776	69	0.2905
2440.4299	3.2646	1.6360	2.2882	70	0.3043
2440.5825	3.3004	1.4207	2.2806	68	0.2795
2440.7349	3.2977	1.4079	2.2549	65	0.2695
2440.8872	3.2954	1.5914	2.2333	63	0.2662
2441.0396	3.3285	1.5944	2.2244	62	0.2696
2441.1919	3.2544	1.5929	2.2206	61	0.2766
2441.3445	3.2922	1.4598	2.2216	62	0.2758
2441.4968	3.3523	1.4621	2.2209	62	0.2713
2441.6492	3.3746	1.4621	2.2237	62	0.2625
2441.8015	3.4095	1.4777	2.2291	63	0.2574
2441.9541	3.4504	1.4926	2.2384	64	0.2657
2442.1064	3.4937	1.5925	2.2448	65	0.2691
2442.2588	3.4970	1.6199	2.2549	67	0.2707
2442.4111	3.4947	1.6730	2.2740	74	0.2727
2442.5637	3.5244	1.6765	2.3064	79	0.2770
2442.7161	3.3456	1.6858	2.3011	82	0.2825
2442.8684	3.3524	1.6664	2.2790	81	0.2857
2443.0208	3.3547	1.7000	2.2460	73	0.2678
2443.1731	3.2814	1.7136	2.2488	65	0.2418
2443.3257	3.9356	1.7136	2.2565	58	0.2163
2443.4780	3.5018	1.7198	2.2639	59	0.2171
2443.6304	3.5861	1.7092	2.2609	60	0.2178
2443.7827	3.6087	1.6774	2.2495	63	0.2237
2443.9353	3.5423	1.6708	2.2409	62	0.2357
2444.0876	3.5201	1.5933	2.2206	61	0.2716
2444.2400	3.4599	1.5927	2.2199	62	0.2885
2444.3923	3.4798	1.5250	2.2214	67	0.2977
2444.5449	3.4315	1.5857	2.2327	69	0.2980
2444.6973	3.3528	1.5952	2.2215	68	0.3046
2444.8496	3.3371	1.5487	2.2156	65	0.2900
2445.0020	3.3307	1.6579	2.2072	63	0.2752
2445.1543	3.3628	1.6579	2.2154	63	0.2605
2445.3069	3.3490	1.6052	2.2247	63	0.2681
2445.4592	3.3196	1.5925	2.2254	64	0.2722
2445.6116	3.3652	1.5656	2.2193	62	0.2771
2445.7639	3.3575	1.3774	2.2081	63	0.2717
2445.9165	3.3539	1.7751	2.2056	61	0.2760
2446.0688	3.3507	1.8628	2.2049	61	0.2821
2446.2212	3.3671	1.8362	2.2081	62	0.2791
2446.3735	3.3318	1.6780	2.2111	63	0.2798
2446.5259	3.2562	1.6813	2.2271	62	0.2683
2446.6785	3.2575	1.6647	2.2348	60	0.2737
2446.8308	3.2663	1.6647	2.2409	62	0.2742
2446.9832	3.2698	1.5923	2.2515	67	0.2792
2447.1355	3.2555	1.5197	2.2665	74	0.2915
2447.2881	3.2276	1.4533	2.2715	75	0.2892
2447.4404	3.2209	1.4569	2.2652	72	0.2914
2447.5928	3.1887	1.6661	2.2578	68	0.2802
2447.7451	3.1698	1.5935	2.2668	68	0.2734
2447.8977	3.1478	1.5724	2.2923	74	0.2998
2448.0500	3.1460	1.5587	2.3136	75	0.3177
2448.2024	3.1512	1.5488	2.3078	76	0.3203
2448.3547	3.1340	1.5197	2.2986	71	0.2921
2448.5071	3.0734	1.5079	2.3053	73	0.2819
2448.6597	3.0189	1.5079	2.3155	75	0.2769
2448.8120	3.0614	1.4694	2.3312	81	0.2821
2448.9644	3.0708	1.4514	2.3399	85	0.3053
2449.1167	3.0817	1.4700	2.3598	86	0.3257
2449.2693	3.1490	1.4752	2.3199	79	0.3345
2449.4216	3.1283	1.4564	2.2744	75	0.3070
2449.5740	3.0122	1.4234	2.2447	70	0.2878
2449.7263	2.9584	1.4171	2.2627	76	0.2968
2449.8789	2.9246	1.3843	2.2970	77	0.3185
2450.0312	2.8732	1.3469	2.2999	86	0.3526
2450.1836	2.8908	1.3145	2.2769	91	0.3663
2450.3359	2.9311	1.3145	2.2605	94	0.3895
2450.4883	2.9528	1.3218	2.2822	93	0.3695
2450.6409	2.9910	1.3303	2.2984	91	0.3472
2450.7932	2.9754	1.2471	2.3018	93	0.3313
2450.9456	2.9896	1.2600	2.2730	93	0.3475
2451.0979	3.0709	1.3571	2.2847	94	0.3468
2451.2505	3.0584	1.3392	2.3131	97	0.3516
2451.4028	3.0797	1.4696	2.3499	95	0.3455
2451.5552	3.1582	1.5209	2.3527	86	0.3406
2451.7075	3.1786	1.5180	2.3121	73	0.3025
2451.8601	3.2247	1.1835	2.2672	69	0.2871
2452.0125	3.2072	1.1835	2.2333	71	0.2864
2452.1648	3.1567	1.1835	2.2442	76	0.3049
2452.3171	3.1131	1.2173	2.2748	75	0.2965
2452.4695	3.2172	1.2847	2.2979	74	0.2794
2452.6221	3.2440	1.3406	2.2905	74	0.2667
2452.7744	3.2920	1.3371	2.2738	71	0.2832
2452.9268	3.2990	1.3270	2.2580	70	0.2938
2453.0791	3.2982	1.3376	2.2565	69	0.2989
2453.2317	3.3953	1.3452	2.2861	74	0.2759
2453.3840	3.3787	1.3574	2.3186	77	0.2711
2453.5364	3.2807	1.3917	2.3271	75	0.2668
2453.6887	3.1867	1.6092	2.3027	72	0.2731
2453.8413	3.2350	1.6849	2.2918	66	0.2820
2453.9937	3.3215	1.7681	2.2685	65	0.2918
2454.1460	3.3806	1.7681	2.2370	64	0.3059
2454.2983	3.4557	1.7865	2.2034	62	0.2888
2454.4507	3.5315	1.7659	2.2337	61	0.2423
2454.6033	3.4052	1.7781	2.2978	61	0.1908
2454.7556	3.5394	1.5937	2.3475	66	0.1718
2454.9080	3.3403	1.6111	2.3453	70	0.1917
2455.0603	3.3137	1.6137	2.3419	74	0.2491
2455.2129	3.2923	1.5692	2.3364	73	0.2749
2455.3652	3.2935	1.6919	2.3165	69	0.2934
2455.5176	3.4443	1.8532	2.2894	67	0.2605
2455.6699	3.6299	2.1055	2.2877	67	0.2524
2455.8225	3.9100	2.3725	2.3239	69	0.2498
2455.9749	4.0925	2.3725	2.3875	67	0.2342
2456.1272	4.1366	2.4025	2.4778	58	0.1841
2456.2795	4.1492	2.4278	2.5541	51	0.1142
2456.4319	3.5835	2.1813	2.5815	48	0.0720
2456.5845	3.4982	2.1204	2.5802	57	0.0875
2456.7368	3.1965	2.0194	2.5391	61	0.1436
2456.8892	3.1308	1.8018	2.4298	66	0.2043
2457.0415	3.0904	1.6307	2.3176	63	0.2510
2457.1941	3.1175	1.5922	2.2407	62	0.2603
2457.3464	3.0799	1.5922	2.2174	63	0.2793
2457.4988	3.1191	1.5441	2.2095	65	0.2825
2457.6511	3.1140	1.5294	2.2064	69	0.2904
2457.8037	3.2156	1.5272	2.2255	73	0.2912
2457.9561	3.2131	1.4435	2.2584	74	0.2959
2458.1084	3.1537	1.3906	2.2809	76	0.3039
2458.2607	3.1227	1.3333	2.2849	72	0.2986
2458.4131	3.1156	1.3631	2.2747	71	0.2842
2458.5657	3.0365	1.3918	2.2637	73	0.2728
2458.7180	2.9089	1.3918	2.2746	85	0.3021
2458.8704	2.9532	1.2604	2.3095	91	0.3447
2459.0227	3.0499	1.2454	2.3493	91	0.3549
2459.1753	2.9930	1.2504	2.3624	85	0.3341
2459.3276	3.1882	1.2280	2.3472	83	0.3280
2459.4800	2.8089	1.2117	2.3452	83	0.3349
2459.6323	2.7804	1.2226	2.3685	82	0.3335
2459.7849	2.8411	1.2368	2.4169	83	0.3278
2459.9373	2.8776	1.2542	2.3975	83	0.3467
2460.0896	2.9665	1.3174	2.3683	86	0.3579
2460.2419	2.9965	1.3154	2.3437	84	0.3446
2460.3943	3.0337	1.3351	2.3478	83	0.3248
2460.5469	3.0168	1.3553	2.3301	83	0.3180
2460.6992	3.0043	1.3319	2.3105	82	0.3203
2460.8516	2.9979	1.3181	2.3047	78	0.3167
2461.0039	2.9657	1.2916	2.3030	75	0.2989
2461.1565	2.8623	1.2823	2.2990	76	0.3020
2461.3088	2.8504	1.2339	2.2925	80	0.3126
2461.4612	2.7991	1.2380	2.3035	84	0.3314
2461.6135	2.7930	1.2525	2.3261	92	0.3561
2461.7661	2.7823	1.2329	2.3367	99	0.3884
2461.9185	2.7820	1.2329	2.3412	101	0.4148
2462.0708	2.8071	1.2182	2.3362	102	0.4125
2462.2231	2.8453	1.2005	2.3373	97	0.3878
2462.3755	2.9237	1.2155	2.3254	94	0.3841
2462.5281	2.8040	1.2506	2.3008	90	0.3893
2462.6804	2.8201	1.3229	2.2842	90	0.3957
2462.8328	2.9085	1.4019	2.3036	87	0.3764
2462.9851	2.9472	1.4178	2.3224	86	0.3540
2463.1377	2.9431	1.3584	2.3148	80	0.3315
2463.2900	2.9031	1.3608	2.3020	78	0.3238
2463.4424	2.9307	1.3765	2.2901	74	0.3307
2463.5947	2.9124	1.3765	2.2880	83	0.3621
2463.7473	2.9461	1.3746	2.3070	92	0.3964
2463.8997	2.9287	1.3585	2.3374	100	0.3886
2464.0520	2.9472	1.3503	2.3479	100	0.3735
2464.2043	2.9200	1.3144	2.3397	95	0.3406
2464.3567	2.8906	1.3156	2.3229	90	0.3388
2464.5093	2.8680	1.3188	2.3224	87	0.3582
2464.6616	2.9233	1.3192	2.3271	88	0.4025
2464.8140	2.8821	1.3329	2.3220	87	0.4228
2464.9663	2.8870	1.3190	2.2931	84	0.3742
2465.1189	2.8883	1.3169	2.2698	77	0.3195
2465.2712	2.9057	1.3337	2.2572	75	0.3241
2465.4236	2.9314	1.3695	2.2707	79	0.3618
