~VERSION INFORMATION
 VERS.                 2.0:   CWLS LOG ASCII STANDARD - VERSION 2.0
 WRAP.                  NO:   SINGLE LINE PER DEPTH STEP
 CREA.                 5/20/2023 9:31:26 AM
#CREATED USING IP VERSION 4.5.2018.204 BY ADMIN ON 5/20/2023 9:31:26 AM
~WELL INFORMATION
#MNEM.UNIT       DATA                          DESCRIPTION MNEMONIC
#---------      ---------------------------   --------------------------
 STRT    .M         2078.0227                 : START DEPTH
 STOP    .M         2636.5688                 : STOP DEPTH
 STEP    .M         0.5000                    : STEP VALUE
 NULL    .      -999.0000                     : NULL VALUE
 DATE    .      5/20/2023                     : LAS file Creation Date
 WELL   .      ADWL-2    : Well Name
 COMP   .                : Company
 FLD    .                : Field
 UWI    .                : Unique Well Identifier (UWI)
 LOC    .                : Location
 RWS    .      -999      : Def_Rw
 WST    .      -999      : Def_Rwt
 PROV   .                : Province
 SRVC   .                : Contractor
 GDAT   .      WGS 84    : Geodatum
 LONG   .      0         : Longitude
 LATI   .      0         : Latitude
 COORDIN.                : Grid System
 XCOORD .                : X or East-West Coordinate
 YCOORD .                : Y or North-South Coordinate
~CURVE INFORMATION
#MNEM              UNIT       API CODE   Curve Type  Comments
#----------  --------------- ----------  ----------  -----------
 DEPTH      .M                         : Depth           
 VP         .KM/S                      : Vp    	     P-Wave Velocity
 VS         .KM/S                      : Vs 	     S-wave Velocity
 RHOB       .Gr/CC                     : RHOB        Density
 GR	    .GAPI		       : GR 	     Gamma Ray
 NPHI       .V/V                       : NPHI	     Neutron
 
~A  DEPTH         VP       VS    RHOB   GR      NPHI   
# ...
2196.8948	2.7743	1.2083	2.1569	72	0.3093
2197.0471	2.7880	1.2004	2.1441	73	0.3167
2197.1997	2.7571	1.1502	2.1286	73	0.3140
2197.3521	2.6802	1.1100	2.1250	76	0.3123
2197.5044	2.6628	1.1036	2.1401	79	0.2988
2197.6567	2.6582	1.1036	2.1498	83	0.3328
2197.8091	2.6454	1.1153	2.1533	82	0.3409
2197.9617	2.6236	1.1060	2.1817	83	0.3675
2198.1140	2.6366	1.0929	2.2029	84	0.3325
2198.2664	2.7432	1.0986	2.2290	87	0.3209
2198.4187	2.7276	1.1916	2.1771	90	0.3585
2198.5713	2.9335	1.1932	2.1436	92	0.3787
2198.7236	2.9243	1.2202	2.1249	92	0.3902
2198.8760	2.9049	1.2210	2.1783	90	0.3392
2199.0283	2.8956	1.3062	2.2031	87	0.3222
2199.1809	2.8619	1.2177	2.2295	84	0.3254
2199.3333	2.7912	1.2177	2.2218	77	0.3299
2199.4856	2.7026	1.1953	2.2164	77	0.3302
2199.6379	2.7007	1.2317	2.2067	80	0.3099
2199.7903	2.6407	1.1715	2.1888	89	0.3343
2199.9429	2.6045	1.0888	2.1522	91	0.3647
2200.0952	2.6277	1.0888	2.1308	91	0.3717
2200.2476	2.5902	1.0925	2.1249	88	0.3441
2200.3999	2.4550	0.9679	2.0608	88	0.3259
2200.5525	2.4423	0.9455	1.9965	86	0.3535
2200.7048	2.4677	0.9054	1.9829	86	0.3631
2200.8572	2.4855	0.8762	1.9021	87	0.3620
2201.0095	2.5304	0.8750	1.8507	89	0.3312
2201.1621	2.4791	0.9229	1.8205	92	0.3719
2201.3145	2.5143	0.9548	1.8959	90	0.4135
2201.4668	2.5397	0.9941	1.9514	87	0.4527
2201.6191	2.5090	1.0117	2.0049	85	0.4523
2201.7715	2.6012	1.0117	2.0971	85	0.4452
2201.9241	2.6027	1.0203	2.1504	86	0.4322
2202.0764	2.5700	0.9889	2.1106	86	0.4520
2202.2288	2.6008	0.9718	2.0861	88	0.4645
2202.3811	2.6606	0.9689	2.1074	87	0.4521
2202.5337	2.6771	0.9689	2.1752	84	0.3992
2202.6860	2.5981	0.9667	2.1131	83	0.4212
2202.8384	2.5761	1.0175	2.0301	83	0.4661
2202.9907	2.5481	0.9747	1.9740	83	0.4838
2203.1433	2.5261	0.9768	2.0384	81	0.4251
2203.2957	2.4870	0.9458	2.0232	80	0.3592
2203.4480	2.4533	0.9487	2.0279	80	0.3609
2203.6003	2.4125	0.8591	1.9735	79	0.4158
2203.7527	2.5201	0.8807	2.0114	81	0.4678
2203.9053	2.5242	0.9099	2.0201	83	0.4799
2204.0576	2.5628	1.1331	2.0413	88	0.4466
2204.2100	2.6071	1.1315	2.0078	89	0.4410
2204.3623	2.7075	1.1810	1.9810	86	0.4576
2204.5149	2.7398	1.1104	1.9492	85	0.4734
2204.6672	2.6744	1.1160	1.9974	84	0.4563
2204.8196	2.6719	1.1394	2.0936	84	0.4019
2204.9719	2.6193	1.1360	2.1807	79	0.3473
2205.1245	2.5691	1.0613	2.2237	74	0.3153
2205.2769	2.5396	0.9873	2.2031	73	0.3235
2205.4292	2.5513	0.9444	2.2032	74	0.3299
2205.5815	2.5814	0.9672	2.2116	77	0.3329
2205.7339	2.6075	1.0177	2.2100	80	0.2994
2205.8865	2.6418	1.0177	2.1522	83	0.3378
2206.0388	2.6987	1.0409	2.1121	86	0.4120
2206.1912	2.6931	1.0791	2.0964	88	0.4631
2206.3435	2.7459	1.1140	2.1319	89	0.4606
2206.4961	2.7040	1.1537	2.1739	90	0.4120
2206.6484	2.7043	1.1537	2.2025	87	0.3855
2206.8008	2.7265	1.1482	2.2416	86	0.3553
2206.9531	2.7522	1.1539	2.2557	82	0.3268
2207.1057	2.8507	1.1877	2.2395	80	0.3361
2207.2581	2.8471	1.2357	2.2103	77	0.3360
2207.4104	2.8815	1.2357	2.1901	74	0.3450
2207.5627	2.9463	1.1016	2.1522	72	0.3259
2207.7151	2.8836	1.1048	2.1262	70	0.3287
2207.8677	2.8141	1.1078	2.1245	68	0.3227
2208.0200	2.7770	1.1025	2.1410	66	0.3230
2208.1724	2.7347	1.1025	2.1471	65	0.3184
2208.3247	2.6114	1.0634	2.1444	65	0.3114
2208.4773	2.6170	1.0463	2.1557	68	0.3011
2208.6296	2.6078	1.0623	2.1375	74	0.3132
2208.7820	2.5384	1.0255	2.1107	81	0.3471
2208.9343	2.4881	1.0255	2.0476	85	0.3856
2209.0869	2.5463	0.9863	2.0393	84	0.4115
2209.2393	2.5946	1.0268	2.0953	83	0.4070
2209.3916	2.6184	1.0268	2.2005	82	0.4113
2209.5439	2.6634	1.1376	2.2545	85	0.4338
2209.6963	2.7183	1.1376	2.2080	84	0.4807
2209.8489	3.0155	1.0741	2.1765	85	0.4877
2210.0012	3.0797	1.1206	2.2159	83	0.4565
2210.1536	3.0469	1.1679	2.2609	81	0.3867
2210.3059	3.1074	1.1679	2.2787	76	0.3517
2210.4585	3.1284	1.1894	2.2466	72	0.3329
2210.6108	3.1427	1.2246	2.2188	71	0.3267
2210.7632	3.2502	1.3081	2.2026	70	0.3105
2210.9155	3.2375	1.2535	2.1941	69	0.3010
2211.0681	3.1924	1.2535	2.1926	69	0.3058
2211.2205	2.7959	1.1984	2.1957	67	0.3123
2211.3728	2.8052	1.1397	2.2045	67	0.3141
2211.5251	2.7285	1.0958	2.2325	69	0.3133
2211.6775	2.6918	1.0293	2.2545	77	0.3432
2211.8301	2.7595	1.0327	2.2641	83	0.3349
2211.9824	2.7550	1.0284	2.2443	86	0.3631
2212.1348	2.7276	0.9633	2.2049	85	0.3315
2212.2871	2.7286	0.9746	2.1629	84	0.3884
2212.4397	2.6969	1.0227	2.1560	83	0.4135
2212.5920	2.7485	1.0755	2.1831	84	0.4354
2212.7444	2.7511	1.0739	2.2124	87	0.3946
2212.8967	2.7709	1.0762	2.2473	92	0.3751
2213.0493	2.7794	1.1426	2.2401	93	0.3675
2213.2017	2.8125	1.2174	2.2509	88	0.3629
2213.3540	2.7818	1.1384	2.2621	80	0.3456
2213.5063	2.7962	1.1384	2.2570	74	0.3405
2213.6587	2.8085	1.1426	2.2355	74	0.3314
2213.8113	2.7702	1.1545	2.2314	75	0.3297
2213.9636	2.6241	1.1146	2.2615	80	0.3318
2214.1160	2.6388	1.0635	2.2809	82	0.3394
2214.2683	2.6374	1.0618	2.2694	81	0.3271
2214.4209	2.6237	1.0694	2.2282	79	0.3158
2214.5732	2.6421	1.1096	2.1953	78	0.3474
2214.7256	2.7734	1.0827	2.1858	82	0.3650
2214.8779	2.8168	1.1661	2.1977	83	0.3677
2215.0305	2.8460	1.1644	2.2276	79	0.3335
2215.1829	2.9192	1.1282	2.2161	74	0.3176
2215.3352	2.9350	1.0878	2.1878	70	0.3202
2215.4875	2.9536	1.1561	2.1848	70	0.3092
2215.6399	2.9941	1.1894	2.1764	71	0.3379
2215.7925	3.0460	1.1911	2.1737	73	0.3451
2215.9448	3.0924	1.2907	2.1712	74	0.3696
2216.0972	3.0200	1.1806	2.1869	72	0.3519
2216.2495	2.9799	1.1500	2.2162	69	0.3509
2216.4021	2.9490	1.2345	2.2391	71	0.3170
2216.5544	2.7629	1.2345	2.2654	70	0.2961
2216.7068	2.7188	1.1922	2.2523	70	0.2704
2216.8591	2.7261	1.2204	2.2279	68	0.2849
2217.0117	2.8246	1.1911	2.2025	72	0.3089
2217.1641	2.8204	1.1497	2.1983	78	0.3350
2217.3164	2.7961	1.1497	2.2214	81	0.3470
2217.4688	2.7486	1.1115	2.2365	80	0.3527
2217.6211	2.7008	1.0559	2.2257	78	0.3351
2217.7737	2.6444	1.0499	2.1849	74	0.3103
2217.9260	2.5945	1.0593	2.1501	71	0.2987
2218.0784	2.6305	1.0593	2.1399	70	0.3215
2218.2307	2.6210	1.0398	2.1569	74	0.3530
2218.3833	2.6100	1.1338	2.1796	78	0.3898
2218.5356	2.6777	1.1402	2.1924	81	0.4076
2218.6880	2.6587	1.0355	2.1816	77	0.4130
2218.8403	2.5262	1.0355	2.2061	77	0.3807
2218.9929	2.5368	1.0050	2.1956	77	0.3753
2219.1453	2.5286	1.0192	2.1531	80	0.3881
2219.2976	2.5614	1.0376	2.1348	79	0.3927
2219.4500	2.5756	1.0502	2.1502	75	0.3681
2219.6023	2.6162	1.0502	2.1583	79	0.3454
2219.7549	2.8327	1.0701	2.1575	83	0.3813
2219.9072	3.0000	1.1329	2.1621	88	0.3940
2220.0596	2.6965	1.0597	2.1803	87	0.3870
2220.2119	2.6169	1.0471	2.1903	83	0.3392
2220.3645	2.6040	1.0262	2.1988	78	0.3273
2220.5168	2.6339	1.0262	2.1784	72	0.3206
2220.6692	2.5399	0.9514	2.1756	71	0.3205
2220.8215	2.5344	0.8482	2.1689	73	0.3378
2220.9741	2.4587	0.8667	2.1682	80	0.3624
2221.1265	2.4953	0.8604	2.1424	81	0.3698
2221.2788	2.5102	0.8604	2.1543	79	0.3572
2221.4312	2.5824	0.8532	2.1705	77	0.3600
2221.5835	2.6171	1.2347	2.1882	77	0.3914
2221.7361	2.7118	1.2958	2.2012	80	0.4348
2221.8884	2.9135	1.3084	2.1935	77	0.4044
2222.0408	2.9386	1.3084	2.1685	75	0.3696
2222.1931	2.9472	1.2324	2.1496	71	0.3288
2222.3457	2.9043	1.2441	2.1486	66	0.3164
2222.4980	2.8241	1.2598	2.1670	64	0.3078
2222.6504	2.7738	1.2548	2.2026	66	0.3018
2222.8027	2.7928	1.2504	2.2312	66	0.3221
2222.9551	2.8053	1.2504	2.2373	71	0.3260
2223.1077	2.7790	1.2469	2.2188	71	0.3228
2223.2600	2.7706	1.2328	2.1900	72	0.3204
2223.4124	2.7471	1.2236	2.1473	68	0.3254
2223.5647	2.7261	1.2393	2.1204	67	0.3317
2223.7173	2.6867	1.2411	2.1073	66	0.3247
2223.8696	2.7142	1.2411	2.1067	66	0.3248
2224.0220	2.7294	1.2446	2.1035	63	0.3300
2224.1743	2.7256	1.2427	2.1000	63	0.3332
2224.3269	2.7254	1.2570	2.0957	62	0.3376
2224.4792	2.6721	1.2358	2.1052	63	0.3379
2224.6316	2.6901	1.2358	2.1084	64	0.3380
2224.7839	2.7683	1.2004	2.1136	64	0.3215
2224.9363	2.8380	1.1591	2.1150	66	0.3158
2225.0889	2.9094	1.1693	2.1227	64	0.3103
2225.2412	2.9241	1.2624	2.1231	65	0.3203
2225.3936	2.9501	1.2907	2.1313	66	0.3332
2225.5459	2.9533	1.2907	2.1313	68	0.3418
2225.6985	2.9829	1.3790	2.1416	68	0.3466
2225.8508	3.0350	1.4553	2.1568	66	0.3307
2226.0032	3.0494	1.4575	2.1758	65	0.3163
2226.1555	3.0656	1.4851	2.1886	65	0.3128
2226.3081	3.1019	1.5013	2.1910	65	0.3210
2226.4604	3.1141	1.5013	2.1929	67	0.3122
2226.6128	3.1226	1.4999	2.1995	66	0.2869
