~VERSION INFORMATION
 VERS.                 2.0:   CWLS LOG ASCII STANDARD - VERSION 2.0
 WRAP.                  NO:   SINGLE LINE PER DEPTH STEP
 CREA.                 5/20/2023 9:31:26 AM
#CREATED USING IP VERSION 4.5.2018.204 BY ADMIN ON 5/20/2023 9:31:26 AM
~WELL INFORMATION
#MNEM.UNIT       DATA                          DESCRIPTION MNEMONIC
#---------      ---------------------------   --------------------------
 STRT    .M         2078.0227                 : START DEPTH
 STOP    .M         2636.5688                 : STOP DEPTH
 STEP    .M         0.5000                    : STEP VALUE
 NULL    .      -999.0000                     : NULL VALUE
 DATE    .      5/20/2023                     : LAS file Creation Date
 WELL   .      ADWL-2    : Well Name
 COMP   .                : Company
 FLD    .                : Field
 UWI    .                : Unique Well Identifier (UWI)
 LOC    .                : Location
 RWS    .      -999      : Def_Rw
 WST    .      -999      : Def_Rwt
 PROV   .                : Province
 SRVC   .                : Contractor
 GDAT   .      WGS 84    : Geodatum
 LONG   .      0         : Longitude
 LATI   .      0         : Latitude
 COORDIN.                : Grid System
 XCOORD .                : X or East-West Coordinate
 YCOORD .                : Y or North-South Coordinate
~CURVE INFORMATION
#MNEM              UNIT       API CODE   Curve Type  Comments
#----------  --------------- ----------  ----------  -----------
 DEPTH      .M                         : Depth           
 VP         .KM/S                      : Vp    	     P-Wave Velocity
 VS         .KM/S                      : Vs 	     S-wave Velocity
 RHOB       .Gr/CC                     : RHOB        Density
 GR	    .GAPI		       : GR 	     Gamma Ray
 NPHI       .V/V                       : NPHI	     Neutron
 
~A  DEPTH         VP       VS    RHOB   GR      NPHI   
# ...
2555.0349	3.3578	1.6890	2.2105	60	0.2600
2555.1873	3.3730	1.6849	2.2236	57	0.2619
2555.3396	3.3842	1.6961	2.2271	56	0.2606
2555.4919	3.3799	1.6995	2.2261	58	0.2593
2555.6443	3.3646	1.7143	2.2254	59	0.2593
2555.7969	3.3538	1.7286	2.2257	58	0.2649
2555.9492	3.3429	1.7300	2.2276	56	0.2644
2556.1016	3.3324	1.6966	2.2311	55	0.2773
2556.2539	3.3273	1.6495	2.2409	55	0.2653
2556.4065	3.3317	1.5198	2.2429	56	0.2687
2556.5588	3.4092	1.6991	2.2437	56	0.2630
2556.7112	3.3851	1.6816	2.2397	55	0.2686
2556.8635	3.3459	1.7509	2.2388	54	0.2641
2557.0161	3.3556	1.5921	2.2317	55	0.2697
2557.1685	3.3465	1.5354	2.2346	57	0.2672
2557.3208	3.3647	1.5902	2.2375	58	0.2729
2557.4731	3.3795	1.6125	2.2414	56	0.2645
2557.6255	3.4142	1.4932	2.2388	54	0.2709
2557.7781	3.4602	1.6482	2.2381	55	0.2747
2557.9304	3.5865	1.7134	2.2393	56	0.2824
2558.0828	3.5475	1.7311	2.2698	57	0.2726
2558.2351	3.5424	1.7478	2.3122	55	0.2505
2558.3877	3.4815	1.7084	2.3462	56	0.2272
2558.5400	3.3388	1.6620	2.3372	55	0.2271
2558.6924	3.2732	1.5781	2.3089	55	0.2465
2558.8447	3.2544	1.4128	2.2758	54	0.2621
2558.9973	3.2490	1.4276	2.2510	54	0.2716
2559.1497	3.2366	1.4572	2.2394	52	0.2641
2559.3020	3.2012	1.4908	2.2324	51	0.2621
2559.4543	3.2130	1.3396	2.2268	52	0.2675
2559.6067	3.2104	1.3792	2.2165	57	0.2721
2559.7593	3.1280	1.3273	2.2141	60	0.2742
2559.9116	3.1700	1.3677	2.2104	57	0.2686
2560.0640	3.1541	1.3142	2.2109	58	0.3001
2560.2163	3.0734	1.3226	2.2133	58	0.3341
2560.3689	3.1163	1.2620	2.2238	64	0.3315
2560.5212	3.2578	1.3165	2.2557	68	0.3047
2560.6736	3.3796	1.5153	2.2800	70	0.2879
2560.8259	3.4174	1.5824	2.3205	74	0.3259
2560.9785	3.4019	1.6585	2.3349	77	0.3216
2561.1309	3.5777	1.6406	2.4081	80	0.2663
2561.2832	3.1397	1.5415	2.5066	80	0.1972
2561.4355	3.1658	1.5184	2.5245	75	0.1993
2561.5879	3.1116	1.4997	2.4009	71	0.2622
2561.7405	3.1595	1.4935	2.3369	70	0.3428
2561.8928	3.1961	1.5388	2.3025	73	0.3795
2562.0452	3.2367	1.5961	2.3282	80	0.3829
2562.1975	3.6794	1.7155	2.3512	81	0.3612
2562.3501	3.7773	1.9411	2.3994	81	0.3334
2562.5024	4.0033	2.0814	2.4368	76	0.2801
2562.6548	3.9174	2.1274	2.4867	72	0.2181
2562.8071	3.6145	2.1078	2.5244	67	0.1709
2562.9597	3.3687	1.9107	2.5222	60	0.1922
2563.1121	3.2987	1.7748	2.4475	55	0.2564
2563.2644	3.2851	1.7620	2.3800	57	0.3026
2563.4167	3.2757	1.6978	2.3527	69	0.2956
2563.5691	3.3222	1.6544	2.3892	77	0.2669
2563.7217	3.3318	1.6420	2.4206	80	0.2550
2563.8740	3.2288	1.6352	2.4103	77	0.2671
2564.0264	3.1888	1.6148	2.3799	75	0.2682
2564.1787	3.2855	1.6007	2.3377	70	0.2766
2564.3313	3.4509	1.5935	2.3091	67	0.2855
2564.4836	3.5276	1.6277	2.2991	66	0.2898
2564.6360	3.5430	1.7029	2.3236	67	0.2897
2564.7883	3.5360	1.7693	2.3417	67	0.2807
2564.9409	3.6988	1.7935	2.3578	65	0.2792
2565.0933	3.8419	1.8451	2.3502	65	0.2693
2565.2456	4.0365	1.9279	2.3631	63	0.2496
2565.3979	4.0262	1.9406	2.3878	64	0.2128
2565.5503	3.9567	1.9411	2.4167	60	0.1799
2565.7029	3.7386	1.9078	2.4280	59	0.1476
2565.8552	3.6097	1.8264	2.4239	56	0.1380
2566.0076	3.5948	1.8079	2.4021	57	0.1443
2566.1599	3.5540	1.7931	2.3836	58	0.1674
2566.3125	3.4730	1.7287	2.3505	61	0.2102
2566.4648	3.4862	1.7136	2.3120	64	0.2334
2566.6172	3.5208	1.6765	2.2780	66	0.2457
2566.7695	3.5021	1.6350	2.2615	63	0.2325
2566.9221	3.5498	1.6334	2.2778	62	0.2239
2567.0745	3.5446	1.6170	2.2925	64	0.2272
2567.2268	3.5155	1.5951	2.3076	68	0.2397
2567.3792	3.4505	1.5799	2.3071	70	0.2617
2567.5315	3.4019	1.5700	2.2946	67	0.2562
2567.6841	3.3629	1.5248	2.2717	63	0.2485
2567.8364	3.3822	1.5192	2.2485	64	0.2470
2567.9888	3.3909	1.5806	2.2358	64	0.2645
2568.1411	3.4619	1.7549	2.2248	66	0.2714
2568.2937	3.6473	1.7732	2.2148	63	0.2662
2568.4460	3.7442	1.6769	2.2104	61	0.2615
2568.5984	3.7989	1.6815	2.2225	60	0.2654
2568.7507	3.8190	1.6792	2.2784	60	0.2575
2568.9033	3.7746	1.6283	2.3686	58	0.2191
2569.0557	3.6230	1.5166	2.4591	55	0.1649
2569.2080	3.3884	1.6708	2.4937	55	0.1337
2569.3604	3.2627	1.5901	2.4131	56	0.1478
2569.5127	3.1555	1.5845	2.3093	59	0.1963
2569.6653	3.1249	1.5368	2.2189	60	0.2479
2569.8176	3.1043	1.5399	2.1918	62	0.2802
2569.9700	3.1049	1.3301	2.1931	62	0.2891
2570.1223	3.1192	1.3268	2.1970	61	0.2902
2570.2749	3.1148	1.3452	2.1940	62	0.2928
2570.4272	3.1035	1.3460	2.1939	62	0.2898
2570.5796	3.1908	1.3357	2.1915	62	0.2813
2570.7319	3.1990	1.5338	2.1927	60	0.2772
2570.8845	3.2142	1.5434	2.1917	59	0.2843
2571.0369	3.1884	1.5322	2.1871	59	0.2970
2571.1892	3.1765	1.5408	2.1838	62	0.3011
2571.3416	3.1517	1.5247	2.1871	62	0.2976
2571.4939	3.1395	1.5328	2.1887	64	0.2871
2571.6465	3.1208	1.5332	2.1932	63	0.2769
2571.7988	3.1402	1.5366	2.1934	63	0.2796
2571.9512	3.1350	1.5460	2.1937	61	0.2790
2572.1035	3.0973	1.5481	2.1905	60	0.2859
2572.2561	3.0705	1.5538	2.1868	58	0.2849
2572.4084	3.1178	1.5224	2.1857	60	0.2870
2572.5608	3.0918	1.5219	2.1797	58	0.2831
2572.7131	3.0807	1.5169	2.1734	60	0.2848
2572.8655	3.0784	1.5103	2.1674	57	0.2830
2573.0181	3.0768	1.5078	2.1711	60	0.2913
2573.1704	3.0648	1.5070	2.1685	57	0.2832
2573.3228	3.0522	1.5305	2.1746	57	0.2864
2573.4751	3.0538	1.5553	2.1738	57	0.2749
2573.6277	3.0741	1.5561	2.1763	60	0.2762
2573.7800	3.0705	1.5586	2.1785	60	0.2760
2573.9324	3.0694	1.5683	2.1844	59	0.2816
2574.0847	3.0852	1.5332	2.1895	58	0.2848
2574.2373	3.1136	1.5117	2.1878	56	0.2882
2574.3896	3.1226	1.4788	2.1964	56	0.2904
2574.5420	3.1276	1.4824	2.1934	56	0.2872
2574.6943	3.0901	1.4977	2.1911	57	0.2829
2574.8467	3.0912	1.4847	2.1915	56	0.2743
2574.9993	3.0855	1.4736	2.1952	55	0.2844
2575.1516	3.0392	1.4367	2.1954	56	0.2848
2575.3040	3.0198	1.3924	2.1874	58	0.2934
2575.4563	3.0150	1.3957	2.1836	61	0.2863
2575.6089	3.0159	1.4248	2.1779	61	0.2855
2575.7612	3.0156	1.4266	2.1760	59	0.2966
2575.9136	3.0121	1.4324	2.1740	57	0.3031
2576.0659	3.0166	1.4154	2.1723	58	0.3077
2576.2185	3.0156	1.3907	2.1736	59	0.2920
2576.3708	3.0035	1.3834	2.1777	60	0.2900
2576.5232	2.9667	1.3659	2.1806	58	0.2919
2576.6755	2.9596	1.3406	2.1748	58	0.3015
2576.8279	2.9544	1.3427	2.1691	59	0.3019
2576.9805	2.9498	1.3744	2.1659	59	0.3115
2577.1328	3.0298	1.4931	2.1640	58	0.3038
2577.2852	3.0348	1.4948	2.1630	58	0.3091
2577.4375	3.0260	1.4775	2.1648	56	0.2986
2577.5901	3.0272	1.4595	2.1655	57	0.3038
2577.7424	3.1004	1.5201	2.1596	56	0.3033
2577.8948	3.1546	1.5427	2.1560	60	0.2990
2578.0471	3.3305	1.5897	2.1551	61	0.3070
2578.1997	3.8860	1.7491	2.1604	59	0.3009
2578.3521	3.9698	1.7962	2.1890	56	0.2878
2578.5044	3.9644	1.7526	2.2416	54	0.2493
2578.6567	4.0151	1.7738	2.3262	54	0.2030
2578.8091	4.0000	2.0822	2.4040	57	0.1711
2578.9617	3.9353	2.0096	2.4481	61	0.1540
2579.1140	3.9425	2.1691	2.4600	63	0.1663
2579.2664	4.0580	2.1449	2.4614	64	0.2068
2579.4187	3.9478	1.9428	2.4738	63	0.2561
2579.5713	3.9180	1.9667	2.4959	63	0.2787
2579.7236	3.8371	1.6897	2.4947	60	0.2719
2579.8760	3.7580	1.6799	2.4725	58	0.2583
2580.0283	3.3583	1.4614	2.4411	57	0.2543
2580.1809	3.2363	1.3908	2.4216	57	0.2587
2580.3333	3.1203	1.3799	2.3603	57	0.2735
2580.4856	3.0645	1.3688	2.2797	58	0.2979
2580.6379	2.9424	1.3130	2.2013	62	0.3129
2580.7903	2.8867	1.2564	2.1676	65	0.3160
2580.9429	2.9434	1.2581	2.1582	66	0.3182
2581.0952	2.9874	1.3023	2.1628	64	0.3096
2581.2476	3.1220	1.4050	2.1754	61	0.2765
2581.3999	3.3254	1.5719	2.2074	59	0.2357
2581.5525	3.6342	1.6675	2.2603	54	0.2006
2581.7048	3.7705	1.7677	2.3371	51	0.1792
2581.8572	3.7856	1.8156	2.4164	49	0.1661
2582.0095	3.6341	1.7450	2.4639	49	0.1847
2582.1621	3.4801	1.7140	2.4809	51	0.2009
2582.3145	3.3956	1.6839	2.4609	55	0.2205
2582.4668	3.1450	1.5685	2.3928	59	0.2671
2582.6191	2.7946	1.3154	2.2792	64	0.3349
2582.7715	2.6339	1.1728	2.2112	68	0.4284
2582.9241	2.6825	1.1671	2.1694	71	0.4566
2583.0764	2.7397	1.1536	2.2113	72	0.4577
2583.2288	2.8874	1.2342	2.2535	74	0.4195
2583.3811	2.9799	1.2554	2.3132	74	0.3775
2583.5337	3.0241	1.2328	2.3689	73	0.3388
2583.6860	3.1400	1.4439	2.4169	69	0.3267
2583.8384	3.1859	1.4804	2.4465	67	0.3204
2583.9907	3.2726	1.5134	2.4492	66	0.2943
2584.1433	3.6316	1.4397	2.4543	62	0.2409
2584.2957	3.6171	1.4007	2.4627	59	0.1814
2584.4480	3.5999	1.4569	2.4921	54	0.1359
2584.6003	3.3243	1.4721	2.4991	59	0.1488
2584.7527	3.2800	1.4383	2.4596	63	0.1948
