~VERSION INFORMATION
 VERS.                 2.0:   CWLS LOG ASCII STANDARD - VERSION 2.0
 WRAP.                  NO:   SINGLE LINE PER DEPTH STEP
 CREA.                 5/20/2023 9:31:26 AM
#CREATED USING IP VERSION 4.5.2018.204 BY ADMIN ON 5/20/2023 9:31:26 AM
~WELL INFORMATION
#MNEM.UNIT       DATA                          DESCRIPTION MNEMONIC
#---------      ---------------------------   --------------------------
 STRT    .M         2078.0227                 : START DEPTH
 STOP    .M         2636.5688                 : STOP DEPTH
 STEP    .M         0.5000                    : STEP VALUE
 NULL    .      -999.0000                     : NULL VALUE
 DATE    .      5/20/2023                     : LAS file Creation Date
 WELL   .      ADWL-2    : Well Name
 COMP   .                : Company
 FLD    .                : Field
 UWI    .                : Unique Well Identifier (UWI)
 LOC    .                : Location
 RWS    .      -999      : Def_Rw
 WST    .      -999      : Def_Rwt
 PROV   .                : Province
 SRVC   .                : Contractor
 GDAT   .      WGS 84    : Geodatum
 LONG   .      0         : Longitude
 LATI   .      0         : Latitude
 COORDIN.                : Grid System
 XCOORD .                : X or East-West Coordinate
 YCOORD .                : Y or North-South Coordinate
~CURVE INFORMATION
#MNEM              UNIT       API CODE   Curve Type  Comments
#----------  --------------- ----------  ----------  -----------
 DEPTH      .M                         : Depth           
 VP         .KM/S                      : Vp    	     P-Wave Velocity
 VS         .KM/S                      : Vs 	     S-wave Velocity
 RHOB       .Gr/CC                     : RHOB        Density
 GR	    .GAPI		       : GR 	     Gamma Ray
 NPHI       .V/V                       : NPHI	     Neutron
 
~A  DEPTH         VP       VS    RHOB   GR      NPHI   
2078.0227	2.3718	1.0085	2.2488	93	0.4134
2078.1753	2.3451	0.9570	2.2402	97	0.4280
2078.3276	2.2836	0.9144	2.2260	100	0.4129
2078.4800	2.2928	0.9144	2.2287	107	0.4309
2078.6323	2.2979	0.9494	2.2316	106	0.4332
2078.7849	2.3035	0.9123	2.2342	103	0.4240
2078.9373	2.3012	0.9026	2.2313	97	0.4307
2079.0896	2.2868	0.9021	2.2209	91	0.4414
2079.2419	2.2958	0.9197	2.2202	89	0.4534
2079.3943	2.3183	0.9197	2.2364	92	0.4456
2079.5469	2.3047	0.9312	2.2438	101	0.4417
2079.6992	2.3083	0.9810	2.2498	108	0.4591
2079.8516	2.3304	0.9481	2.2600	116	0.4352
2080.0039	2.3415	0.9554	2.2664	115	0.4381
2080.1565	2.3480	0.9554	2.2636	118	0.4288
2080.3088	2.3682	0.9906	2.2583	115	0.4432
2080.4612	2.3723	0.9885	2.2514	118	0.4204
2080.6135	2.3800	0.9908	2.2525	115	0.4204
2080.7661	2.3804	0.9905	2.2496	113	0.4318
2080.9185	2.3780	0.9921	2.2624	109	0.4102
2081.0708	2.3777	0.9921	2.2624	105	0.4024
2081.2231	2.3699	0.9861	2.2668	106	0.3962
2081.3755	2.3758	0.9835	2.2632	106	0.4355
2081.5281	2.3888	0.9543	2.2663	105	0.4231
2081.6804	2.3672	0.9427	2.2681	102	0.4279
2081.8328	2.3292	0.9427	2.2780	95	0.4099
2081.9851	2.3126	0.9165	2.2780	94	0.4191
2082.1377	2.2865	0.9079	2.2760	96	0.4029
2082.2900	2.2803	0.9058	2.2515	104	0.4069
2082.4424	2.2837	0.8843	2.2319	111	0.4124
2082.5947	2.2837	0.8886	2.2138	113	0.4231
2082.7473	2.2849	0.8886	2.2192	115	0.4102
2082.8997	2.2984	0.8802	2.2434	112	0.4079
2083.0520	2.2939	0.9095	2.2434	113	0.4070
2083.2043	2.2991	0.8870	2.2409	119	0.4198
2083.3567	2.3082	0.9368	2.2246	128	0.4274
2083.5093	2.3359	0.9368	2.2191	137	0.4508
2083.6616	2.3639	0.9188	2.2074	136	0.4453
2083.8140	2.3640	0.9872	2.2309	127	0.4378
2083.9663	2.3762	0.9818	2.2519	112	0.4019
2084.1189	2.3644	0.9798	2.2770	94	0.4028
2084.2712	2.3431	0.9798	2.2728	87	0.4011
2084.4236	2.3460	0.9674	2.2682	90	0.4124
2084.5759	2.3578	0.9661	2.2674	98	0.4111
2084.7285	2.3591	0.9762	2.2643	103	0.4337
2084.8809	2.3629	0.9827	2.2600	103	0.4255
2085.0332	2.3739	0.9857	2.2497	100	0.4313
2085.1855	2.3679	0.9857	2.2553	98	0.4221
2085.3379	2.3664	0.9812	2.2658	96	0.4260
2085.4905	2.3526	0.9795	2.2701	97	0.4323
2085.6428	2.3502	0.9668	2.2638	101	0.4220
2085.7952	2.3356	0.9407	2.2520	103	0.4103
2085.9475	2.3520	0.9407	2.2496	105	0.4186
2086.1001	2.3485	0.9893	2.2451	105	0.4258
2086.2524	2.3332	0.9863	2.2517	103	0.4337
2086.4048	2.3297	0.9602	2.2561	99	0.4385
2086.5571	2.3072	0.9045	2.2690	94	0.4201
2086.7097	2.3001	0.8941	2.2744	88	0.4106
2086.8621	2.2959	0.8941	2.2694	86	0.3858
2087.0144	2.2924	0.8935	2.2536	85	0.4011
2087.1667	2.3120	0.8611	2.2374	88	0.4250
2087.3191	2.3301	0.9060	2.2373	93	0.4359
2087.4717	2.3476	0.9168	2.2346	97	0.4418
2087.6240	2.3429	0.9168	2.2331	103	0.4460
2087.7764	2.3479	0.9224	2.2254	104	0.4521
2087.9287	2.3519	0.9317	2.2310	100	0.4465
2088.0813	2.3796	0.9398	2.2390	91	0.4169
2088.2336	2.3960	0.9438	2.2500	84	0.4111
2088.3860	2.3942	0.9428	2.2529	81	0.4067
2088.5383	2.3891	0.9428	2.2424	80	0.4154
2088.6909	2.4051	0.9435	2.2326	81	0.4117
2088.8433	2.4018	0.9420	2.2275	86	0.4142
2088.9956	2.3853	0.9381	2.2230	89	0.4086
2089.1479	2.3738	0.9300	2.2251	92	0.4110
2089.3003	2.3561	0.9300	2.2302	88	0.4086
2089.4529	2.3413	0.9171	2.2296	90	0.4168
2089.6052	2.3377	0.9100	2.2319	88	0.4083
2089.7576	2.3342	0.9020	2.2406	90	0.4143
2089.9099	2.3248	0.9055	2.2383	86	0.4021
2090.0625	2.3133	0.9055	2.2305	88	0.4009
2090.2148	2.3269	0.9120	2.2347	88	0.4215
2090.3672	2.3202	0.9197	2.2449	92	0.4449
2090.5195	2.3215	0.9221	2.2550	92	0.4555
2090.6721	2.3245	0.9180	2.2561	97	0.4298
2090.8245	2.3272	0.9146	2.2608	100	0.4045
2090.9768	2.3286	0.9146	2.2579	105	0.3836
2091.1292	2.3294	0.9131	2.2570	108	0.3794
2091.2815	2.3389	0.9310	2.2474	107	0.3883
2091.4341	2.3519	0.9424	2.2381	105	0.3964
2091.5864	2.3777	0.9423	2.2283	101	0.3959
2091.7388	2.3740	0.9423	2.2377	99	0.4128
2091.8911	2.3761	0.9580	2.2559	96	0.4282
2092.0437	2.3769	0.9571	2.2697	94	0.4287
2092.1960	2.3880	0.9588	2.2727	96	0.3980
2092.3484	2.3846	0.9871	2.2660	101	0.3684
2092.5007	2.3754	0.9871	2.2622	102	0.3720
2092.6533	2.3811	0.9821	2.2674	98	0.3830
2092.8057	2.3864	0.9819	2.2677	91	0.4019
2092.9580	2.3738	0.9569	2.2692	87	0.4041
2093.1104	2.3436	0.9425	2.2645	84	0.4149
2093.2627	2.3308	0.9387	2.2619	84	0.3984
2093.4153	2.3420	0.9387	2.2550	85	0.3796
2093.5676	2.3479	0.9506	2.2526	90	0.3676
2093.7200	2.3492	0.9527	2.2522	91	0.3800
2093.8723	2.3460	0.9531	2.2408	93	0.4026
2094.0249	2.3532	0.9051	2.2440	90	0.4128
2094.1772	2.3403	0.9051	2.2677	89	0.4236
2094.3296	2.3368	0.9408	2.2810	88	0.4143
2094.4819	2.3269	0.9230	2.2789	87	0.4239
2094.6345	2.3253	0.9293	2.2598	89	0.4237
2094.7869	2.3322	0.9535	2.2531	89	0.4212
2094.9392	2.3574	0.9248	2.2499	88	0.4111
2095.0916	2.3735	0.9248	2.2589	88	0.4204
2095.2439	2.3935	0.9428	2.2653	87	0.4366
2095.3965	2.3888	0.9472	2.2922	83	0.4213
2095.5488	2.3685	0.9441	2.3253	81	0.4065
2095.7012	2.3599	0.9219	2.3318	80	0.4090
2095.8535	2.3431	0.9219	2.3098	83	0.4238
2096.0061	2.3362	0.9228	2.2730	87	0.4283
2096.1584	2.3242	0.9026	2.2491	88	0.4037
2096.3108	2.3252	0.9034	2.2419	87	0.4330
2096.4631	2.3247	0.9036	2.2367	87	0.4364
2096.6155	2.3136	0.8995	2.2363	89	0.4459
2096.7681	2.3121	0.8995	2.2376	92	0.4098
2096.9204	2.3071	0.9044	2.2281	96	0.4058
2097.0728	2.3180	0.9063	2.2261	95	0.4128
2097.2251	2.3359	0.9145	2.2197	93	0.4280
2097.3777	2.3431	0.9149	2.2469	88	0.4304
2097.5300	2.3232	0.9149	2.2445	84	0.4369
2097.6824	2.3079	0.9162	2.2469	84	0.4211
2097.8347	2.3071	0.8859	2.2360	84	0.4273
2097.9873	2.3094	0.8885	2.2454	88	0.4150
2098.1396	2.3168	0.9001	2.2438	88	0.4164
2098.2920	2.3326	0.9237	2.2376	92	0.4178
2098.4443	2.3578	0.9237	2.2380	95	0.4426
2098.5967	2.3657	0.9293	2.2443	98	0.4635
2098.7493	2.3684	0.9334	2.2484	98	0.4550
2098.9016	2.3731	0.9873	2.2538	93	0.4279
2099.0540	2.3740	0.9892	2.2652	91	0.4233
2099.2063	2.3816	0.9892	2.2863	89	0.4085
2099.3589	2.3731	0.9614	2.2844	89	0.4035
2099.5112	2.3721	0.9504	2.2778	88	0.3769
2099.6636	2.3737	0.9407	2.2673	87	0.3914
2099.8159	2.3740	0.9444	2.2626	88	0.3926
2099.9685	2.3646	0.9480	2.2606	89	0.4088
2100.1208	2.3796	0.9480	2.2562	92	0.4117
2100.2732	2.3861	0.9427	2.2579	94	0.4241
2100.4255	2.3860	0.9442	2.2622	94	0.4307
2100.5779	2.3943	0.9892	2.2750	93	0.4179
2100.7305	2.3720	0.9840	2.2854	92	0.4056
2100.8828	2.3622	0.9840	2.2894	93	0.4138
2101.0352	2.3600	0.9810	2.2818	97	0.4162
2101.1875	2.3718	0.9744	2.2656	97	0.4293
2101.3401	2.3796	0.9779	2.2601	100	0.4224
2101.4924	2.3882	1.0084	2.2553	96	0.4463
2101.6448	2.4133	1.0084	2.2551	94	0.4262
2101.7971	2.4335	1.0153	2.2528	90	0.3969
2101.9497	2.4305	0.9945	2.2629	89	0.3771
2102.1021	2.4163	0.9873	2.2683	89	0.3910
2102.2544	2.4004	1.0091	2.2804	87	0.4082
2102.4067	2.3801	0.9862	2.2900	86	0.4057
2102.5591	2.3675	0.9862	2.2863	87	0.4112
2102.7117	2.3489	0.9853	2.2630	88	0.4093
2102.8640	2.3498	0.9838	2.2401	87	0.4221
2103.0164	2.3529	0.9851	2.2241	89	0.4243
2103.1687	2.3581	0.9315	2.2249	88	0.4231
2103.3213	2.3652	0.9315	2.2460	89	0.3995
2103.4736	2.3687	0.9824	2.2686	88	0.3855
2103.6260	2.3656	0.9726	2.2810	88	0.4017
2103.7783	2.3559	0.9735	2.2686	92	0.4225
2103.9309	2.3516	0.9798	2.2492	92	0.4324
2104.0833	2.3526	0.9623	2.2433	96	0.4336
2104.2356	2.3480	0.9623	2.2597	92	0.4266
2104.3879	2.3436	0.9611	2.2815	91	0.4321
2104.5403	2.3459	0.9551	2.2754	89	0.4250
2104.6929	2.3568	0.9555	2.2583	90	0.4279
2104.8452	2.3662	0.9662	2.2445	92	0.4332
2104.9976	2.3807	0.9662	2.2387	92	0.4331
2105.1499	2.3846	0.9656	2.2333	93	0.4255
2105.3025	2.3761	0.9608	2.2355	91	0.4053
2105.4548	2.3447	0.9482	2.2477	87	0.4141
2105.6072	2.3256	0.9386	2.2590	86	0.4151
2105.7595	2.3116	0.9386	2.2503	85	0.4108
2105.9121	2.2928	0.9206	2.2280	90	0.4100
2106.0645	2.2848	0.9013	2.2273	92	0.4332
2106.2168	2.2920	0.8969	2.2306	96	0.4445
2106.3691	2.3037	0.8958	2.2218	94	0.4488
2106.5215	2.3161	0.8906	2.2072	93	0.4254
2106.6741	2.3181	0.8906	2.1976	90	0.4219
2106.8264	2.3229	0.8952	2.2096	93	0.4137
2106.9788	2.3236	0.9004	2.2165	100	0.4300
2107.1311	2.3222	0.9006	2.2332	108	0.4209
2107.2837	2.3299	0.9146	2.2520	108	0.4366
2107.4360	2.3374	0.9146	2.2610	109	0.4308
