~VERSION INFORMATION
 VERS.                 2.0:   CWLS LOG ASCII STANDARD - VERSION 2.0
 WRAP.                  NO:   SINGLE LINE PER DEPTH STEP
 CREA.                 5/20/2023 9:31:26 AM
#CREATED USING IP VERSION 4.5.2018.204 BY ADMIN ON 5/20/2023 9:31:26 AM
~WELL INFORMATION
#MNEM.UNIT       DATA                          DESCRIPTION MNEMONIC
#---------      ---------------------------   --------------------------
 STRT    .M         2078.0227                 : START DEPTH
 STOP    .M         2636.5688                 : STOP DEPTH
 STEP    .M         0.5000                    : STEP VALUE
 NULL    .      -999.0000                     : NULL VALUE
 DATE    .      5/20/2023                     : LAS file Creation Date
 WELL   .      ADWL-2    : Well Name
 COMP   .                : Company
 FLD    .                : Field
 UWI    .                : Unique Well Identifier (UWI)
 LOC    .                : Location
 RWS    .      -999      : Def_Rw
 WST    .      -999      : Def_Rwt
 PROV   .                : Province
 SRVC   .                : Contractor
 GDAT   .      WGS 84    : Geodatum
 LONG   .      0         : Longitude
 LATI   .      0         : Latitude
 COORDIN.                : Grid System
 XCOORD .                : X or East-West Coordinate
 YCOORD .                : Y or North-South Coordinate
~CURVE INFORMATION
#MNEM              UNIT       API CODE   Curve Type  Comments
#----------  --------------- ----------  ----------  -----------
 DEPTH      .M                         : Depth           
 VP         .KM/S                      : Vp    	     P-Wave Velocity
 VS         .KM/S                      : Vs 	     S-wave Velocity
 RHOB       .Gr/CC                     : RHOB        Density
 GR	    .GAPI		       : GR 	     Gamma Ray
 NPHI       .V/V                       : NPHI	     Neutron
 
~A  DEPTH         VP       VS    RHOB   GR      NPHI   
# ...
2405.8352	3.0792	1.5470	2.3620	91	0.3322
2405.9875	3.0935	1.5874	2.3552	92	0.3238
2406.1399	3.1236	1.5860	2.3056	87	0.3082
2406.2925	3.1252	1.5860	2.2321	81	0.3031
2406.4448	3.1153	1.5723	2.1786	74	0.3187
2406.5972	3.1334	1.5638	2.1617	73	0.3211
2406.7495	3.1449	1.5827	2.1545	72	0.3224
2406.9021	3.1834	1.6058	2.1533	70	0.3096
2407.0544	3.2314	1.6154	2.1525	67	0.3071
2407.2068	3.2557	1.6427	2.1625	63	0.3042
2407.3591	3.3012	1.6330	2.1739	61	0.2984
2407.5117	3.3362	1.6475	2.1824	60	0.2875
2407.6641	3.3510	1.6578	2.2002	61	0.2775
2407.8164	3.4621	1.7035	2.2146	62	0.2664
2407.9688	3.4885	1.6843	2.2340	62	0.2683
2408.1211	3.4903	1.6843	2.2377	59	0.2625
2408.2737	3.5438	1.6991	2.2444	55	0.2607
2408.4260	3.5062	1.7024	2.2423	56	0.2605
2408.5784	3.4970	1.7109	2.2661	58	0.2525
2408.7307	3.4761	1.6793	2.2784	59	0.2413
2408.8833	3.4531	1.7113	2.2904	58	0.2230
2409.0356	3.4298	1.6728	2.2748	57	0.2231
2409.1880	3.4569	1.7023	2.2673	58	0.2309
2409.3403	3.4307	1.6793	2.2592	59	0.2398
2409.4929	3.3913	1.6430	2.2631	58	0.2440
2409.6453	3.3443	1.5986	2.2608	58	0.2441
2409.7976	3.2166	1.5553	2.2656	56	0.2500
2409.9500	3.2395	1.5553	2.2647	57	0.2591
2410.1023	3.1268	1.5369	2.2749	62	0.2702
2410.2549	3.1069	1.5246	2.2755	70	0.2823
2410.4072	3.1182	1.5315	2.2908	77	0.2871
2410.5596	3.1381	1.5701	2.3076	81	0.2930
2410.7119	3.1412	1.5801	2.3370	83	0.2829
2410.8645	3.1545	1.5979	2.3593	87	0.2935
2411.0168	3.1794	1.6152	2.3780	88	0.2900
2411.1692	3.2244	1.6143	2.3816	86	0.2960
2411.3215	3.2629	1.6198	2.3785	83	0.2851
2411.4741	3.2358	1.6195	2.3577	78	0.2793
2411.6265	3.2566	1.6084	2.3256	74	0.2753
2411.7788	3.3118	1.6084	2.2761	69	0.2751
2411.9312	3.3807	1.6218	2.2487	67	0.2707
2412.0835	3.4266	1.6432	2.2468	66	0.2733
2412.2361	3.4526	1.6720	2.2555	66	0.2612
2412.3884	3.4609	1.6576	2.2558	69	0.2671
2412.5408	3.4500	1.6325	2.2615	69	0.2616
2412.6931	3.4307	1.6183	2.2679	69	0.2603
2412.8457	3.3738	1.5989	2.2669	67	0.2683
2412.9980	3.2637	1.6121	2.2534	66	0.2738
2413.1504	3.3526	1.6377	2.2459	66	0.2635
2413.3027	3.2703	1.6680	2.2606	68	0.2538
2413.4551	3.2465	1.6948	2.3023	71	0.2577
2413.6077	3.2465	1.6948	2.3591	78	0.3042
2413.7600	3.3053	1.7144	2.3743	85	0.3200
2413.9124	3.3425	1.7171	2.3365	86	0.3178
2414.0647	3.3470	1.7134	2.2718	77	0.2875
2414.2173	3.3660	1.6948	2.2312	66	0.2701
2414.3696	3.3535	1.6644	2.2286	62	0.2638
2414.5220	3.3734	1.6644	2.2546	63	0.2719
2414.6743	3.3775	1.6784	2.2592	64	0.2769
2414.8269	3.3719	1.7033	2.2572	64	0.2780
2414.9792	3.3822	1.7097	2.2539	67	0.2728
2415.1316	3.3755	1.7310	2.2939	75	0.2936
2415.2839	3.3918	1.8077	2.2996	80	0.2916
2415.4363	3.4214	1.8000	2.2865	80	0.2844
2415.5889	3.4151	1.8000	2.2464	71	0.2585
2415.7412	3.3785	1.5922	2.2359	64	0.2683
2415.8936	3.3850	1.7464	2.2321	62	0.2712
2416.0459	3.6737	1.7653	2.2290	64	0.2678
2416.1985	3.6928	1.8200	2.2247	66	0.2595
2416.3508	3.7187	1.9608	2.2273	65	0.2612
2416.5032	3.5261	1.9872	2.2428	64	0.2643
2416.6555	3.5395	2.0002	2.2652	60	0.2364
2416.8081	3.5517	1.9317	2.3190	58	0.2070
2416.9604	3.5138	1.8000	2.3266	56	0.1919
2417.1128	3.3650	1.7470	2.2934	57	0.2106
2417.2651	3.3613	1.7470	2.2457	58	0.2401
2417.4175	3.3979	1.6715	2.2291	60	0.2637
2417.5701	3.3939	1.6675	2.2369	59	0.2715
2417.7224	3.4185	1.6725	2.2273	60	0.2738
2417.8748	3.3993	1.6766	2.2286	59	0.2702
2418.0271	3.3663	1.6749	2.2316	61	0.2730
2418.1797	3.4102	1.6862	2.2453	62	0.2698
2418.3320	3.4765	1.7521	2.2486	61	0.2701
2418.4844	3.4889	1.7356	2.2471	62	0.2599
2418.6367	3.4882	1.7260	2.2490	62	0.2573
2418.7893	3.4763	1.6814	2.2496	61	0.2386
2418.9417	3.4061	1.6151	2.2540	58	0.2461
2419.0940	3.2549	1.6151	2.2546	59	0.2482
2419.2463	3.0984	1.5246	2.2534	60	0.2649
2419.3987	3.1034	1.4898	2.2545	65	0.2852
2419.5513	3.1263	1.4922	2.2674	70	0.3234
2419.7036	3.2200	1.4953	2.3116	82	0.3514
2419.8560	3.1731	1.5921	2.3367	89	0.3359
2420.0083	3.2618	1.6122	2.3340	90	0.2982
2420.1609	3.3051	1.6145	2.2887	84	0.2700
2420.3132	3.3105	1.6072	2.2578	75	0.2644
2420.4656	3.2845	1.5997	2.2470	70	0.2718
2420.6179	3.2921	1.6041	2.2478	66	0.2776
2420.7705	3.2664	1.6041	2.2384	64	0.2904
2420.9229	3.2824	1.6218	2.2320	61	0.2826
2421.0752	3.3165	1.6536	2.2313	60	0.2776
2421.2275	3.3730	1.6764	2.2403	61	0.2640
2421.3799	3.3098	1.6948	2.2517	66	0.2632
2421.5325	3.3334	1.6936	2.2554	68	0.2658
2421.6848	3.2929	1.6707	2.2529	69	0.2669
2421.8372	3.3509	1.7045	2.2406	65	0.2654
2421.9895	3.3922	1.5109	2.2313	64	0.2652
2422.1421	3.4141	1.7835	2.2135	65	0.2760
2422.2944	3.4440	1.8093	2.2057	65	0.2855
2422.4468	3.4111	1.8093	2.2241	65	0.2652
2422.5991	3.4537	1.8172	2.2493	62	0.2328
2422.7517	3.3324	1.7899	2.2653	62	0.2199
2422.9041	3.2762	1.7619	2.2554	63	0.2336
2423.0564	3.3020	1.4081	2.2407	65	0.2500
2423.2087	3.3008	1.7165	2.2312	67	0.2635
2423.3611	3.2886	1.6476	2.2277	64	0.2714
2423.5137	3.3300	1.6032	2.2338	63	0.2820
2423.6660	3.3214	1.5843	2.2447	63	0.2754
2423.8184	3.3211	1.6566	2.2474	64	0.2776
2423.9707	3.3699	1.6104	2.2369	65	0.2798
2424.1233	3.4084	1.6139	2.2314	63	0.2769
2424.2756	3.4285	1.6139	2.2309	62	0.2717
2424.4280	3.4361	1.6368	2.2432	62	0.2635
2424.5803	3.4207	1.5974	2.2750	64	0.2592
2424.7329	3.4312	1.6197	2.3326	70	0.2471
2424.8853	3.4306	1.6266	2.3938	76	0.2457
2425.0376	3.3890	1.6194	2.4073	77	0.2489
2425.1899	3.3711	1.5177	2.3820	79	0.2618
2425.3423	3.3838	1.5156	2.3304	80	0.2670
2425.4949	3.3998	1.5282	2.2775	79	0.2722
2425.6472	3.3904	1.5224	2.2507	72	0.2763
2425.7996	3.3501	1.5224	2.2715	68	0.2746
2425.9519	3.3559	1.5289	2.3019	69	0.2663
2426.1045	3.3377	1.5427	2.2975	70	0.2650
2426.2568	3.2564	1.5952	2.2936	69	0.2764
2426.4092	3.2398	1.5948	2.3056	71	0.2956
2426.5615	3.2210	1.5996	2.3389	74	0.2946
2426.7141	3.3193	1.6284	2.3345	76	0.2856
2426.8665	3.3278	1.5997	2.3033	76	0.2793
2427.0188	3.2812	1.4954	2.2670	74	0.2748
2427.1711	3.1504	1.4743	2.2591	75	0.2911
2427.3235	3.1219	1.4664	2.2534	75	0.3089
2427.4761	3.1032	1.4664	2.2733	77	0.3163
2427.6284	3.0378	1.4984	2.2778	77	0.2966
2427.7808	3.1895	1.5092	2.2916	77	0.2964
2427.9331	3.1708	1.5633	2.2997	76	0.3103
2428.0857	3.1874	1.5904	2.2908	73	0.3193
2428.2380	3.2533	1.6171	2.2668	66	0.3064
2428.3904	3.3109	1.6464	2.2777	67	0.2915
2428.5427	3.3173	1.6649	2.2923	70	0.2807
2428.6953	3.3237	1.6723	2.3151	71	0.2691
2428.8477	3.3471	1.6452	2.3099	67	0.2772
2429.0000	3.3387	1.6450	2.2805	61	0.2762
2429.1523	3.3211	1.6503	2.2430	58	0.2742
2429.3047	3.3019	1.6503	2.2065	58	0.2671
2429.4573	3.3288	1.6601	2.2025	59	0.2688
2429.6096	3.3584	1.6773	2.2086	58	0.2743
2429.7620	3.3917	1.7000	2.2143	57	0.2724
2429.9143	3.4337	1.7283	2.2081	55	0.2739
2430.0669	3.3318	1.7482	2.2089	57	0.2707
2430.2192	3.3904	1.7515	2.2149	59	0.2726
2430.3716	3.4225	1.7537	2.2317	64	0.2710
2430.5239	3.3695	1.7553	2.2444	61	0.2753
2430.6765	3.4389	1.7466	2.2430	62	0.2718
2430.8289	3.4461	1.7368	2.2297	57	0.2641
2430.9812	3.4275	1.7368	2.2205	60	0.2616
2431.1335	3.4158	1.7257	2.2283	58	0.2529
2431.2859	3.2797	1.7035	2.2462	62	0.2620
2431.4385	3.2716	1.6905	2.2411	61	0.2593
2431.5908	3.3070	1.6672	2.2219	62	0.2739
2431.7432	3.3569	1.6722	2.2035	61	0.2772
2431.8955	3.3470	1.6779	2.2048	61	0.2808
2432.0481	3.3102	1.7056	2.2112	64	0.2783
2432.2004	3.3192	1.6955	2.2127	63	0.2748
2432.3528	3.3616	1.6870	2.2082	62	0.2772
2432.5051	3.3099	1.6837	2.2136	61	0.2759
2432.6577	3.3309	1.6730	2.2247	62	0.2833
2432.8101	3.3092	1.6730	2.2289	64	0.2814
2432.9624	3.3357	1.7033	2.2282	64	0.2714
2433.1147	3.3350	1.7113	2.2212	63	0.2602
2433.2671	3.3637	1.5962	2.2212	61	0.2557
2433.4197	3.3755	1.6353	2.2238	60	0.2703
2433.5720	3.3728	1.6350	2.2153	61	0.2807
2433.7244	3.3785	1.6520	2.2172	62	0.2873
2433.8767	3.3867	1.7000	2.2182	62	0.2853
2434.0293	3.3823	1.6847	2.2296	64	0.2734
2434.1816	3.3427	1.6314	2.2464	62	0.2686
2434.3340	3.3391	1.6127	2.2532	64	0.2499
2434.4863	3.3156	1.6251	2.2557	65	0.2425
2434.6389	3.3221	1.6251	2.2515	66	0.2436
2434.7913	3.3175	1.6238	2.2614	67	0.2479
2434.9436	3.2931	1.6373	2.2666	70	0.2522
2435.0959	3.2932	1.6229	2.3062	76	0.2488
2435.2483	3.2786	1.6334	2.3360	82	0.2662
2435.4009	3.2528	1.6718	2.3443	80	0.2660
2435.5532	3.2385	1.5953	2.3181	76	0.2627
