~VERSION INFORMATION
 VERS.                 2.0:   CWLS LOG ASCII STANDARD - VERSION 2.0
 WRAP.                  NO:   SINGLE LINE PER DEPTH STEP
 CREA.                 5/20/2023 9:31:26 AM
#CREATED USING IP VERSION 4.5.2018.204 BY ADMIN ON 5/20/2023 9:31:26 AM
~WELL INFORMATION
#MNEM.UNIT       DATA                          DESCRIPTION MNEMONIC
#---------      ---------------------------   --------------------------
 STRT    .M         2078.0227                 : START DEPTH
 STOP    .M         2636.5688                 : STOP DEPTH
 STEP    .M         0.5000                    : STEP VALUE
 NULL    .      -999.0000                     : NULL VALUE
 DATE    .      5/20/2023                     : LAS file Creation Date
 WELL   .      ADWL-2    : Well Name
 COMP   .                : Company
 FLD    .                : Field
 UWI    .                : Unique Well Identifier (UWI)
 LOC    .                : Location
 RWS    .      -999      : Def_Rw
 WST    .      -999      : Def_Rwt
 PROV   .                : Province
 SRVC   .                : Contractor
 GDAT   .      WGS 84    : Geodatum
 LONG   .      0         : Longitude
 LATI   .      0         : Latitude
 COORDIN.                : Grid System
 XCOORD .                : X or East-West Coordinate
 YCOORD .                : Y or North-South Coordinate
~CURVE INFORMATION
#MNEM              UNIT       API CODE   Curve Type  Comments
#----------  --------------- ----------  ----------  -----------
 DEPTH      .M                         : Depth           
 VP         .KM/S                      : Vp    	     P-Wave Velocity
 VS         .KM/S                      : Vs 	     S-wave Velocity
 RHOB       .Gr/CC                     : RHOB        Density
 GR	    .GAPI		       : GR 	     Gamma Ray
 NPHI       .V/V                       : NPHI	     Neutron
 
~A  DEPTH         VP       VS    RHOB   GR      NPHI   
# ...
2495.2939	2.7490	1.2921	2.3466	81	0.3677
2495.4463	2.7618	1.3044	2.3587	77	0.3640
2495.5989	2.7541	1.2838	2.3705	76	0.3780
2495.7512	2.8016	1.2384	2.3894	75	0.4071
2495.9036	2.8264	1.2257	2.4041	77	0.3799
2496.0559	2.7802	1.2298	2.4035	76	0.3500
2496.2085	2.7403	1.2086	2.3948	77	0.3298
2496.3608	2.6958	1.1293	2.3771	80	0.3723
2496.5132	2.6459	1.1299	2.3764	82	0.3820
2496.6655	2.5812	1.1221	2.3702	81	0.3946
2496.8181	2.5855	1.1244	2.3709	80	0.3838
2496.9705	2.5527	1.1058	2.3498	77	0.3927
2497.1228	2.5639	1.1086	2.3108	75	0.3723
2497.2751	2.5828	1.0998	2.2750	75	0.3640
2497.4275	2.6492	1.1116	2.2651	77	0.3866
2497.5801	2.6792	1.1835	2.3015	79	0.4063
2497.7324	2.6768	1.1786	2.3302	78	0.3993
2497.8848	2.6514	1.1615	2.3512	77	0.3711
2498.0371	2.6477	1.1587	2.3503	76	0.3746
2498.1897	2.6745	1.1810	2.3632	77	0.3814
2498.3420	2.6744	1.1901	2.3647	79	0.3873
2498.4944	2.6495	1.1920	2.3604	79	0.3862
2498.6467	2.6113	1.1718	2.3561	80	0.3771
2498.7993	2.5839	1.1420	2.3571	81	0.3843
2498.9517	2.5650	1.1398	2.3707	79	0.3866
2499.1040	2.5600	1.1379	2.3620	78	0.3992
2499.2563	2.5527	1.1123	2.3169	78	0.4125
2499.4087	2.5604	1.1422	2.2687	79	0.4282
2499.5613	2.5719	1.1448	2.2772	76	0.4199
2499.7136	2.5842	1.1441	2.3090	77	0.4017
2499.8660	2.5994	1.1049	2.3180	79	0.3851
2500.0183	2.5756	1.0963	2.3002	83	0.3959
2500.1709	2.5971	1.0984	2.3038	85	0.4040
2500.3232	2.6633	1.0824	2.2791	84	0.4114
2500.4756	2.6646	1.1100	2.2736	86	0.3988
2500.6279	2.7403	1.1791	2.2439	85	0.3861
2500.7805	2.7934	1.1935	2.2400	87	0.3865
2500.9329	2.8524	1.2188	2.2256	86	0.4117
2501.0852	2.9418	1.2404	2.1780	78	0.3930
2501.2375	3.0096	1.3819	2.1602	70	0.3555
2501.3899	3.0337	1.3880	2.1416	61	0.3049
2501.5425	3.0619	1.4043	2.1320	62	0.2943
2501.6948	3.1299	1.4234	2.1379	61	0.2930
2501.8472	3.1668	1.4225	2.1598	59	0.2937
2501.9995	3.2379	1.4915	2.1857	57	0.2947
2502.1521	3.2452	1.4998	2.1974	57	0.2923
2502.3044	3.2603	1.5009	2.1979	60	0.2839
2502.4568	3.1616	1.5044	2.1999	60	0.2872
2502.6091	3.1216	1.5186	2.2060	63	0.2882
2502.7617	3.0984	1.5166	2.2114	60	0.2841
2502.9141	3.1297	1.4997	2.2133	59	0.2792
2503.0664	3.0984	1.4863	2.2067	54	0.2883
2503.2188	3.1292	1.4857	2.1985	55	0.3033
2503.3711	3.1538	1.4825	2.1919	56	0.2941
2503.5237	3.2112	1.4818	2.1883	59	0.2740
2503.6760	3.2712	1.5294	2.1859	59	0.2762
2503.8284	3.3480	1.5500	2.1903	57	0.2812
2503.9807	3.2606	1.4919	2.1870	55	0.2938
2504.1333	3.2797	1.4842	2.1846	55	0.2836
2504.2856	3.2063	1.4998	2.1840	58	0.2901
2504.4380	3.0827	1.4963	2.1826	59	0.2808
2504.5903	3.0792	1.4883	2.1829	60	0.2855
2504.7429	3.0846	1.4814	2.1867	58	0.2838
2504.8953	3.0850	1.5575	2.1896	60	0.2982
2505.0476	3.0624	1.5496	2.1896	57	0.2958
2505.2000	3.2292	1.5276	2.1844	58	0.2875
2505.3523	3.2324	1.4973	2.1778	58	0.2764
2505.5049	3.2366	1.4996	2.1764	60	0.2899
2505.6572	3.1828	1.4985	2.1794	60	0.2999
2505.8096	3.1614	1.4860	2.1815	59	0.3125
2505.9619	3.1314	1.4727	2.1821	59	0.3071
2506.1145	3.1275	1.4698	2.1791	58	0.3064
2506.2668	3.1198	1.5201	2.1732	58	0.3000
2506.4192	3.1288	1.5188	2.1695	59	0.2955
2506.5715	3.0847	1.5136	2.1687	59	0.2941
2506.7241	3.1703	1.5126	2.1685	61	0.2968
2506.8765	3.1986	1.5086	2.1680	61	0.2877
2507.0288	3.2124	1.5017	2.1718	59	0.2839
2507.1812	3.2102	1.4922	2.1802	58	0.2753
2507.3335	3.2204	1.4504	2.1817	58	0.2787
2507.4861	3.2381	1.4528	2.1814	60	0.2798
2507.6384	3.2396	1.4560	2.1855	58	0.2839
2507.7908	3.2511	1.4740	2.1925	59	0.2917
2507.9431	3.2537	1.5022	2.1959	57	0.2933
2508.0957	3.2536	1.5195	2.2062	57	0.2885
2508.2480	3.2790	1.5232	2.2228	56	0.2776
2508.4004	3.2226	1.5191	2.2390	56	0.2671
2508.5527	3.1952	1.5008	2.2382	56	0.2597
2508.7051	3.1738	1.4568	2.2226	57	0.2447
2508.8577	3.1238	1.4537	2.2106	57	0.2523
2509.0100	3.1343	1.4326	2.2000	60	0.2616
2509.1624	3.1290	1.4419	2.1986	59	0.2822
2509.3147	3.1351	1.4470	2.1922	57	0.2906
2509.4673	3.1491	1.4520	2.1914	57	0.2994
2509.6196	3.1579	1.4557	2.1868	58	0.2981
2509.7720	3.1794	1.4673	2.1912	58	0.2921
2509.9243	3.1893	1.4813	2.1844	57	0.2895
2510.0769	3.1763	1.4854	2.1789	56	0.2931
2510.2292	3.1847	1.4923	2.1721	59	0.2885
2510.3816	3.1869	1.5005	2.1802	59	0.2801
2510.5339	3.1686	1.5105	2.1893	60	0.2706
2510.6863	3.1767	1.5192	2.1984	58	0.2706
2510.8389	3.1844	1.5247	2.2022	58	0.2725
2510.9912	3.1994	1.5366	2.2023	56	0.2776
2511.1436	3.2099	1.5583	2.1948	56	0.2836
2511.2959	3.2268	1.5858	2.1957	56	0.2817
2511.4485	3.2266	1.5960	2.1993	58	0.2717
2511.6008	3.2357	1.6063	2.2052	60	0.2616
2511.7532	3.2444	1.6235	2.2148	59	0.2612
2511.9055	3.2451	1.6264	2.2147	59	0.2680
2512.0581	3.2356	1.6281	2.2189	59	0.2790
2512.2104	3.2292	1.6287	2.2197	60	0.2691
2512.3628	3.2139	1.6265	2.2264	60	0.2681
2512.5151	3.1750	1.6302	2.2439	59	0.2649
2512.6675	3.1366	1.6160	2.2722	61	0.2734
2512.8201	3.1099	1.5926	2.2956	60	0.2720
2512.9724	3.0889	1.5475	2.2805	58	0.2714
2513.1248	3.0897	1.5286	2.2481	56	0.2762
2513.2771	3.1001	1.5254	2.2256	55	0.2825
2513.4297	3.2091	1.5314	2.2107	57	0.2892
2513.5820	3.2265	1.5464	2.2014	56	0.2941
2513.7344	3.2477	1.5750	2.1927	59	0.2920
2513.8867	3.2811	1.5967	2.1884	61	0.2887
2514.0393	3.3310	1.6299	2.1903	62	0.2830
2514.1917	3.2640	1.6525	2.1975	61	0.2899
2514.3440	3.2750	1.6607	2.2097	58	0.2826
2514.4963	3.2869	1.6722	2.2147	58	0.2792
2514.6487	3.3042	1.6750	2.2280	57	0.2663
2514.8013	3.2701	1.6758	2.2342	59	0.2690
2514.9536	3.2552	1.6695	2.2444	58	0.2707
2515.1060	3.2459	1.6572	2.2439	57	0.2718
2515.2583	3.2368	1.6533	2.2384	56	0.2624
2515.4109	3.2332	1.6505	2.2315	56	0.2635
2515.5632	3.2410	1.6474	2.2245	57	0.2607
2515.7156	3.2427	1.6487	2.2239	56	0.2687
2515.8679	3.2397	1.6506	2.2322	56	0.2702
2516.0205	3.2472	1.6499	2.2368	54	0.2757
2516.1729	3.2470	1.6485	2.2346	56	0.2749
2516.3252	3.2156	1.6487	2.2324	58	0.2777
2516.4775	3.2020	1.6441	2.2275	60	0.2761
2516.6299	3.2002	1.6297	2.2217	59	0.2757
2516.7825	3.2448	1.6516	2.2153	59	0.2697
2516.9348	3.2523	1.6807	2.2137	59	0.2735
2517.0872	3.2433	1.6760	2.2137	58	0.2755
2517.2395	3.2410	1.6748	2.2144	57	0.2751
2517.3921	3.2703	1.6627	2.2209	57	0.2697
2517.5444	3.2969	1.6646	2.2279	58	0.2731
2517.6968	3.2890	1.6576	2.2304	58	0.2708
2517.8491	3.2893	1.6514	2.2348	57	0.2745
2518.0017	3.2710	1.6529	2.2419	57	0.2686
2518.1541	3.2748	1.6573	2.2491	58	0.2886
2518.3064	3.2577	1.6588	2.2430	58	0.2842
2518.4587	3.2521	1.6366	2.2396	57	0.2891
2518.6111	3.2565	1.6298	2.2310	57	0.2679
2518.7637	3.2458	1.6652	2.2266	57	0.2809
2518.9160	3.2393	1.6762	2.2218	60	0.2774
2519.0684	3.2340	1.5982	2.2210	60	0.2946
2519.2207	3.2141	1.6608	2.2147	60	0.2780
2519.3733	3.1975	1.5819	2.2074	60	0.2768
2519.5256	3.1832	1.6488	2.2041	57	0.2636
2519.6780	3.2105	1.6756	2.2014	58	0.2756
2519.8303	3.2279	1.6344	2.2060	55	0.2753
2519.9829	3.3101	1.6877	2.2049	58	0.2821
2520.1353	3.2441	1.7103	2.2055	57	0.2744
2520.2876	3.3191	1.6528	2.2058	58	0.2757
2520.4399	3.2544	1.3962	2.2161	58	0.2697
2520.5923	3.2157	1.4091	2.2334	58	0.2515
2520.7449	3.1733	1.4319	2.2492	69	0.2452
2520.8972	3.0612	1.4139	2.2746	79	0.3035
2521.0496	3.1513	1.4804	2.2714	89	0.4040
2521.2019	3.1976	1.6061	2.2853	90	0.4566
2521.3545	3.3827	1.6786	2.2892	86	0.4354
2521.5068	3.4173	1.6928	2.3152	81	0.4100
2521.6592	3.3736	1.7327	2.3560	74	0.3725
2521.8115	3.3344	1.6757	2.3758	73	0.3272
2521.9641	3.2843	1.6488	2.3420	71	0.2884
2522.1165	3.2570	1.6054	2.3205	75	0.2939
2522.2688	3.2437	1.5504	2.3237	76	0.2978
2522.4211	3.2461	1.5109	2.3305	76	0.3227
2522.5735	3.2124	1.4881	2.3253	73	0.3070
2522.7261	3.1879	1.5039	2.3153	72	0.3273
2522.8784	3.2660	1.4481	2.3088	73	0.3271
2523.0308	3.0854	1.5862	2.2887	74	0.3377
2523.1831	3.0836	1.5879	2.2497	79	0.3686
2523.3357	3.0906	1.5374	2.2133	81	0.3529
2523.4880	3.0478	1.5066	2.2142	80	0.3492
2523.6404	3.0050	1.4474	2.2544	74	0.3198
2523.7927	2.9174	1.4274	2.2580	65	0.2952
2523.9453	2.9313	1.3696	2.2514	62	0.2800
2524.0977	2.9617	1.3932	2.2148	62	0.2709
2524.2500	2.9166	1.3934	2.1833	68	0.3087
2524.4023	2.9766	1.4629	2.1514	72	0.3394
2524.5547	3.1163	1.5059	2.1779	72	0.3604
2524.7073	3.1221	1.5015	2.2064	67	0.3209
2524.8596	3.1422	1.5034	2.2056	60	0.2919
2525.0120	3.1545	1.5106	2.1960	60	0.2732
